[
  {
    "name": "가야 반도보라빌APT",
    "address": "부산광역시 부산진구 가야공원로 41 (가야동, 가야반도보라빌)",
    "tel": "1588-6200",
    "hours": "07:00~24:00",
    "lat": 35.1503136,
    "lng": 129.0319722
  },
  {
    "name": "가야 벽산아파트",
    "address": "부산광역시 부산진구 엄광로 68 (가야동, 가야 벽산아파트)",
    "tel": "1588-6200",
    "hours": "07:00~24:00",
    "lat": 35.1467498,
    "lng": 129.024907
  },
  {
    "name": "가야 태화현대 2차",
    "address": "부산광역시 부산진구 가야대로 635-13 (당감동, 가야태화현대2차 아파트)",
    "tel": "1588-6200",
    "hours": "07:00~24:00",
    "lat": 35.1567924,
    "lng": 129.0404356
  },
  {
    "name": "가야 CC",
    "address": "경남 김해시 인제로 502",
    "tel": "1588-6200",
    "hours": "04:00~23:00",
    "lat": 35.2739318,
    "lng": 128.8993664
  },
  {
    "name": "가야동지점",
    "address": "부산광역시 부산진구 가야대로 610",
    "tel": "1588-6200",
    "hours": "07:00~24:00",
    "lat": 35.154729,
    "lng": 129.0384948
  },
  {
    "name": "감만 국제아파트",
    "address": "부산광역시 남구 석포로 34 (감만동)",
    "tel": "1588-6200",
    "hours": "07:00~24:00",
    "lat": 35.1223265,
    "lng": 129.0851197
  },
  {
    "name": "감만 현대아파트",
    "address": "부산광역시 남구 우암로2번길 5 (감만동)",
    "tel": "1588-6200",
    "hours": "07:00~24:00",
    "lat": 35.111607,
    "lng": 129.0831476
  },
  {
    "name": "감만 홈플러스",
    "address": "부산광역시 남구 우암로 124 홈플러스 1층 입구",
    "tel": "1588-6200",
    "hours": "09:30~23:00",
    "lat": 35.1215448,
    "lng": 129.0822284
  },
  {
    "name": "감만동(영)",
    "address": "부산광역시 남구 우암로 124 감만점 1층 (감만동,홈플러스)",
    "tel": "1588-6200",
    "hours": "09:30~23:00",
    "lat": 35.1215448,
    "lng": 129.0822284
  },
  {
    "name": "감전동 무인점",
    "address": "부산광역시 사상구 괘감로 131 (감전동)",
    "tel": "1588-6200",
    "hours": "07:00~24:00",
    "lat": 35.1564928,
    "lng": 128.988763
  },
  {
    "name": "감전동금융센터",
    "address": "부산광역시 사상구 새벽로 160",
    "tel": "1588-6200",
    "hours": "07:00~24:00",
    "lat": 35.155244,
    "lng": 128.9834201
  },
  {
    "name": "감전동금융센터(시간내)",
    "address": "부산광역시 사상구 새벽로 160 (시간내) *평일 09:00~16:00 이용/ 주말.공휴일 이용불가",
    "tel": "1588-6200",
    "hours": "09:30~15:30",
    "lat": 35.155244,
    "lng": 128.9834201
  },
  {
    "name": "감천동지점",
    "address": "부산광역시 사하구 옥천로 6",
    "tel": "1588-6200",
    "hours": "07:00~24:00",
    "lat": 35.0880542,
    "lng": 129.0054021
  },
  {
    "name": "감천중앙지점",
    "address": "부산광역시 사하구 감천로 52",
    "tel": "1588-6200",
    "hours": "07:00~24:00",
    "lat": 35.0903093,
    "lng": 128.9982207
  },
  {
    "name": "강남지점",
    "address": "서울특별시 서초구 강남대로 279",
    "tel": "1588-6200",
    "hours": "07:00~24:00",
    "lat": 37.4881091,
    "lng": 127.0317671
  },
  {
    "name": "강서산단",
    "address": "부산 강서구 미음산단로127번길 21 (구랑동)",
    "tel": "1588-6200",
    "hours": "07:00~24:00",
    "lat": 35.1376498,
    "lng": 128.8568625
  },
  {
    "name": "개금 동원화인아파트",
    "address": "부산광역시 부산진구 백양관문로77번길 55 (개금동, 동원화인패밀리타운)",
    "tel": "1588-6200",
    "hours": "07:00~24:00",
    "lat": 35.1632679,
    "lng": 129.0282971
  },
  {
    "name": "개금동지점",
    "address": "부산광역시 부산진구 가야대로 494",
    "tel": "1588-6200",
    "hours": "07:00~24:00",
    "lat": 35.1528239,
    "lng": 129.0261687
  },
  {
    "name": "개금사랑영업소",
    "address": "부산광역시 부산진구 복지로 49",
    "tel": "1588-6200",
    "hours": "07:00~24:00",
    "lat": 35.1487584,
    "lng": 129.0208679
  },
  {
    "name": "거제 유림아파트",
    "address": "부산광역시 연제구 해맞이로 23 (거제동)",
    "tel": "1588-6200",
    "hours": "07:00~24:00",
    "lat": 35.1771935,
    "lng": 129.0660899
  },
  {
    "name": "거제 현대홈타운 2차",
    "address": "부산광역시 연제구 법원북로 16 (거제동, 거제2차현대홈타운)",
    "tel": "1588-6200",
    "hours": "07:00~24:00",
    "lat": 35.1926952,
    "lng": 129.0684951
  },
  {
    "name": "거제고현",
    "address": "경상남도 거제시 거제중앙로 29길 15",
    "tel": "1588-6200",
    "hours": "07:00~24:00",
    "lat": 34.8895363,
    "lng": 128.6207287
  },
  {
    "name": "거제동지점",
    "address": "부산광역시 연제구 거제대로 166",
    "tel": "1588-6200",
    "hours": "07:00~24:00",
    "lat": 35.1831971,
    "lng": 129.0706096
  },
  {
    "name": "검찰청영업소",
    "address": "부산광역시 연제구 법원로 15 *평일 09:30 ~15:30 이용/ 주말.공휴일 이용불가",
    "tel": "1588-6200",
    "hours": "09:30~15:30",
    "lat": 35.1914609,
    "lng": 129.0722737
  },
  {
    "name": "경륜2층 서쪽 4번출구",
    "address": "부산광역시 금정구 체육공원로 399번길 324 (두구동)",
    "tel": "1588-6200",
    "hours": "09:00~24:00",
    "lat": 35.2918295,
    "lng": 129.1051659
  },
  {
    "name": "경륜2층 수표환전소옆",
    "address": "부산광역시 금정구 체육공원로 399번길 324 (두구동)",
    "tel": "1588-6200",
    "hours": "09:00~24:00",
    "lat": 35.2918295,
    "lng": 129.1051659
  },
  {
    "name": "경륜2층 2-1 투표소 옆",
    "address": "부산광역시 금정구 체육공원로 399번길 324 (두구동)",
    "tel": "1588-6200",
    "hours": "09:00~24:00",
    "lat": 35.2918295,
    "lng": 129.1051659
  },
  {
    "name": "경륜2층 2-7 투표소앞",
    "address": "부산광역시 금정구 체육공원로 399번길 324 (두구동)",
    "tel": "1588-6200",
    "hours": "09:00~24:00",
    "lat": 35.2918295,
    "lng": 129.1051659
  },
  {
    "name": "경륜3층 동쪽환전소앞",
    "address": "부산광역시 금정구 체육공원로 399번길 324 (두구동)",
    "tel": "1588-6200",
    "hours": "09:00~24:00",
    "lat": 35.2918295,
    "lng": 129.1051659
  },
  {
    "name": "경륜3층 서쪽 관전홀",
    "address": "부산광역시 금정구 체육공원로 399번길 324 (두구동)",
    "tel": "1588-6200",
    "hours": "09:00~24:00",
    "lat": 35.2918295,
    "lng": 129.1051659
  },
  {
    "name": "경륜4층 동쪽환전소앞",
    "address": "부산광역시 금정구 체육공원로 399번길 324 (두구동)",
    "tel": "1588-6200",
    "hours": "09:00~24:00",
    "lat": 35.2918295,
    "lng": 129.1051659
  },
  {
    "name": "경륜공단 광복지점4층",
    "address": "부산광역시 중구 광복로 88, 하모니빌딩 (광복동1가)",
    "tel": "1588-6200",
    "hours": "10:00~20:00",
    "lat": 35.0984002,
    "lng": 129.034542
  },
  {
    "name": "경륜공단 광복지점5층",
    "address": "부산광역시 중구 광복로 88, 하모니빌딩 (광복동1가)",
    "tel": "1588-6200",
    "hours": "10:00~20:00",
    "lat": 35.0984002,
    "lng": 129.034542
  },
  {
    "name": "경륜공단 서면점 2층",
    "address": "부산광역시 부산진구 서면로 25 (부전동) 삼한골든뷰 2층",
    "tel": "1588-6200",
    "hours": "10:00~21:00",
    "lat": 35.1529575,
    "lng": 129.0572817
  },
  {
    "name": "경륜공단 서면점 3층",
    "address": "부산광역시 부산진구 서면로 25 (부전동) 삼한골든뷰 3층",
    "tel": "1588-6200",
    "hours": "10:00~21:00",
    "lat": 35.1529575,
    "lng": 129.0572817
  },
  {
    "name": "경륜공단 스포츠센타",
    "address": "부산광역시 금정구 체육공원로 399번길 324 (두구동)",
    "tel": "1588-6200",
    "hours": "09:00~21:00",
    "lat": 35.2918295,
    "lng": 129.1051659
  },
  {
    "name": "경성대학교영업소",
    "address": "부산광역시 남구 수영로 309",
    "tel": "1588-6200",
    "hours": "07:00~24:00",
    "lat": 35.1422456,
    "lng": 129.0969338
  },
  {
    "name": "고촌휴먼시아1차",
    "address": "부산광역시 기장군 철마면 고촌로 44번길 16 (고촌휴먼시아1)",
    "tel": "1588-6200",
    "hours": "07:00~24:00",
    "lat": 35.2418338,
    "lng": 129.1683295
  },
  {
    "name": "광남지점",
    "address": "부산광역시 수영구 광남로 33",
    "tel": "1588-6200",
    "hours": "07:00~24:00",
    "lat": 35.1458346,
    "lng": 129.1108477
  },
  {
    "name": "광복 지하쇼핑센터 남포역",
    "address": "부산광역시 중구 중앙대로 17 광복지하쇼핑센터 (중앙동7가)",
    "tel": "1588-6200",
    "hours": "07:00~24:00",
    "lat": 35.1004731,
    "lng": 129.0365592
  },
  {
    "name": "광복지하쇼핑센터 쉼터",
    "address": "부산광역시 중구 중앙대로 17 광복지하쇼핑센터 (중앙동7가)",
    "tel": "1588-6200",
    "hours": "07:00~24:00",
    "lat": 35.1004731,
    "lng": 129.0365592
  },
  {
    "name": "광안동금융센터",
    "address": "부산 수영구 수영로618번길 4 (광안동,성우이린타워/ 1층 자동화코너)",
    "tel": "1588-6200",
    "hours": "07:00~24:00",
    "lat": 35.160547,
    "lng": 129.1140392
  },
  {
    "name": "광혜병원",
    "address": "부산광역시 동래구 충렬대로 96 (온천동)",
    "tel": "1588-6200",
    "hours": "07:00~24:00",
    "lat": 35.2070104,
    "lng": 129.0711482
  },
  {
    "name": "괘법동",
    "address": "부산광역시 사상구 운산로 28",
    "tel": "1588-6200",
    "hours": "07:00~24:00",
    "lat": 35.1687864,
    "lng": 128.979721
  },
  {
    "name": "괴정1동 무인점",
    "address": "부산 사하구 괴정로270번길 29 (괴정동)",
    "tel": "1588-6200",
    "hours": "07:00~24:00",
    "lat": 35.095587,
    "lng": 128.9917233
  },
  {
    "name": "괴정2동무인점",
    "address": "부산광역시 사하구 사리로 38 (괴정동)",
    "tel": "1588-6200",
    "hours": "07:00~24:00",
    "lat": 35.1032898,
    "lng": 128.9990109
  },
  {
    "name": "괴정동(시간내)",
    "address": "부산광역시 사하구 낙동대로 225 (시간내) *평일 09:00~16:00 이용/ 주말.공휴일 이용불가",
    "tel": "1588-6200",
    "hours": "09:30~15:30",
    "lat": 35.0995853,
    "lng": 128.9923642
  },
  {
    "name": "괴정동지점",
    "address": "부산광역시 사하구 낙동대로 225",
    "tel": "1588-6200",
    "hours": "07:00~24:00",
    "lat": 35.0995853,
    "lng": 128.9923642
  },
  {
    "name": "교대역영업소",
    "address": "부산광역시 연제구 중앙대로 1217",
    "tel": "1588-6200",
    "hours": "07:00~24:00",
    "lat": 35.1959224,
    "lng": 129.0793192
  },
  {
    "name": "구남지점",
    "address": "부산광역시 북구 백양대로 1025",
    "tel": "1588-6200",
    "hours": "07:00~24:00",
    "lat": 35.1978558,
    "lng": 128.995157
  },
  {
    "name": "구로디지털지점",
    "address": "서울특별시 구로구 디지털로 288, 대륭포스트타워1차 102호",
    "tel": "1588-6200",
    "hours": "07:00~24:00",
    "lat": 37.4837317,
    "lng": 126.8953656
  },
  {
    "name": "구서동금융센터",
    "address": "부산광역시 금정구 구서로 23",
    "tel": "1588-6200",
    "hours": "00:00~24:00",
    "lat": 35.24662,
    "lng": 129.0886141
  },
  {
    "name": "구서동금융센터2층",
    "address": "부산광역시 금정구 구서로 23 (시간내) *평일 09:00~16:00 이용/ 주말.공휴일 이용불가",
    "tel": "1588-6200",
    "hours": "09:30~15:30",
    "lat": 35.24662,
    "lng": 129.0886141
  },
  {
    "name": "구서롯데캐슬",
    "address": "부산 금정구 금강로 503 구서롯데캐슬 골드 2단지 802동 앞",
    "tel": "1588-6200",
    "hours": "07:00~24:00",
    "lat": 35.2506004,
    "lng": 129.0861771
  },
  {
    "name": "구평 e-편한세상2차",
    "address": "부산광역시 사하구 서포로30번길 12 e편한세상 사하2차 상가 외부",
    "tel": "1588-6200",
    "hours": "07:00~24:00",
    "lat": 35.0815324,
    "lng": 128.985031
  },
  {
    "name": "구포 수정 강변아파트",
    "address": "부산광역시 북구 학사로 17번길 31 (화명동, 수정강변타운아파트)",
    "tel": "1588-6200",
    "hours": "07:00~24:00",
    "lat": 35.2219756,
    "lng": 129.0067295
  },
  {
    "name": "구포3동지점",
    "address": "부산광역시 북구 시랑로 79번길 30-8",
    "tel": "1588-6200",
    "hours": "07:00~24:00",
    "lat": 35.1983573,
    "lng": 129.0073075
  },
  {
    "name": "구포성심병원",
    "address": "부산광역시 북구 낙동대로 1786 (구포동)",
    "tel": "1588-6200",
    "hours": "07:00~24:00",
    "lat": 35.2097133,
    "lng": 129.0047235
  },
  {
    "name": "구포지점",
    "address": "부산 북구 백양대로 1200 (덕천동)",
    "tel": "1588-6200",
    "hours": "07:00~20:00",
    "lat": 35.2093711,
    "lng": 129.0058071
  },
  {
    "name": "국내선 1층",
    "address": "부산광역시 강서구 공항진입로 108 (대저동, 김핵구제공항 국내선청사)",
    "tel": "1588-6200",
    "hours": "05:00~23:00",
    "lat": 35.1720764,
    "lng": 128.9474778
  },
  {
    "name": "국내선 2층",
    "address": "부산광역시 강서구 공항진입로 108 (대저동, 김해국제공항 국내선청사)",
    "tel": "1588-6200",
    "hours": "05:00~23:00",
    "lat": 35.1720764,
    "lng": 128.9474778
  },
  {
    "name": "국제백양무인점",
    "address": "부산진구 백양관문로 104 (당감동 국제백양아파트내 상가)",
    "tel": "1588-6200",
    "hours": "07:00~24:00",
    "lat": 35.1686685,
    "lng": 129.0287074
  },
  {
    "name": "국제여객터미널영업소",
    "address": "부산광역시 동구 충장대로 206 부산항 국제여객터미널",
    "tel": "1588-6200",
    "hours": "07:00~24:00",
    "lat": 35.117747,
    "lng": 129.0491458
  },
  {
    "name": "금곡동영업소",
    "address": "부산광역시 북구 금곡대로 616번길 55 *공동점포(KB국민은행)",
    "tel": "1588-6200",
    "hours": "07:00~24:00",
    "lat": 35.2630212,
    "lng": 129.0162521
  },
  {
    "name": "금곡주공 1단지내",
    "address": "부산광역시 북구 효열로 268 (금곡동,주공아파트)",
    "tel": "1588-6200",
    "hours": "00:00~24:00",
    "lat": 35.2684511,
    "lng": 129.0189829
  },
  {
    "name": "금곡주공 3단지내",
    "address": "부산광역시 북구 효열로 220번길 23 (금곡동,주공아파트)",
    "tel": "1588-6200",
    "hours": "07:00~24:00",
    "lat": 35.2644042,
    "lng": 129.0219071
  },
  {
    "name": "금곡주공 8~9단지내",
    "address": "부산시 북구 효열로 134 (금곡동)",
    "tel": "1588-6200",
    "hours": "07:00~24:00",
    "lat": 35.2581404,
    "lng": 129.0155025
  },
  {
    "name": "금사공단점",
    "address": "부산광역시 금정구 서동로 173",
    "tel": "1588-6200",
    "hours": "07:00~24:00",
    "lat": 35.2147056,
    "lng": 129.1056265
  },
  {
    "name": "금정구청영업소",
    "address": "부산광역시 금정구 중앙대로 1777",
    "tel": "1588-6200",
    "hours": "07:00~24:00",
    "lat": 35.2430679,
    "lng": 129.0921
  },
  {
    "name": "금정산SK뷰 아파트",
    "address": "부산 금정구 식물원로 64 (장전동)",
    "tel": "1588-6200",
    "hours": "07:00~24:00",
    "lat": 35.2270674,
    "lng": 129.0802102
  },
  {
    "name": "기장 연수원",
    "address": "부산광역시 기장군 일광면 이천8길 80 (이천리, 부산은행 연수원)",
    "tel": "1588-6200",
    "hours": "08:00~22:00",
    "lat": 35.2741821,
    "lng": 129.2363202
  },
  {
    "name": "기장대라리이진캐스빌",
    "address": "부산광역시 기장군 기장읍 차성서로 51",
    "tel": "1588-6200",
    "hours": "07:00~24:00",
    "lat": 35.2379394,
    "lng": 129.2095213
  },
  {
    "name": "기장지점",
    "address": "부산 기장군 기장읍 읍내로 98",
    "tel": "1588-6200",
    "hours": "07:00~24:00",
    "lat": 35.2449518,
    "lng": 129.2150553
  },
  {
    "name": "기찰지점",
    "address": "부산광역시 금정구 수림로 15",
    "tel": "1588-6200",
    "hours": "07:00~24:00",
    "lat": 35.239289,
    "lng": 129.090704
  },
  {
    "name": "김해공항",
    "address": "부산 강서구 공항진입로 108 1층 국제선 4GATE 앞 (대저2동,김해국제공항건물)",
    "tel": "1588-6200",
    "hours": "05:00~24:00",
    "lat": 35.1720764,
    "lng": 128.9474778
  },
  {
    "name": "김해공항 입국장",
    "address": "부산강서구공항진입로 108 (대저2동)",
    "tel": "1588-6200",
    "hours": "06:00~24:00",
    "lat": 35.1720764,
    "lng": 128.9474778
  },
  {
    "name": "김해공항 출국장",
    "address": "부산광역시 강서구 공항진입로 108",
    "tel": "1588-6200",
    "hours": "05:00~24:00",
    "lat": 35.1720764,
    "lng": 128.9474778
  },
  {
    "name": "김해금융센터",
    "address": "경상남도 김해시 가락로 23",
    "tel": "1588-6200",
    "hours": "07:00~24:00",
    "lat": 35.2287051,
    "lng": 128.882153
  },
  {
    "name": "김해금융센터(시간내)",
    "address": "경상남도 김해시 가락로 23 (시간내) 2층 *평일 09:00~16:00 이용/ 주말.공휴일 이용불가",
    "tel": "1588-6200",
    "hours": "09:30~15:30",
    "lat": 35.2287051,
    "lng": 128.882153
  },
  {
    "name": "김해어방점",
    "address": "경남 김해시 인제로 165",
    "tel": "1588-6200",
    "hours": "07:00~24:00",
    "lat": 35.2433684,
    "lng": 128.9034724
  },
  {
    "name": "김해주촌공단지점",
    "address": "경상남도 김해시 주촌면 골든루트로 66번길 5",
    "tel": "1588-6200",
    "hours": "07:00~24:00",
    "lat": 35.212418,
    "lng": 128.8306774
  },
  {
    "name": "낙민 한일 유엔아이",
    "address": "부산광역시 동래구 온천천로 339번길 28 (낙민동)",
    "tel": "1588-6200",
    "hours": "07:00~24:00",
    "lat": 35.1954577,
    "lng": 129.0920294
  },
  {
    "name": "남구청영업소",
    "address": "부산광역시 남구 못골로 19 (시간내) *평일 09:00~16:00 이용/ 주말.공휴일 이용불가",
    "tel": "1588-6200",
    "hours": "09:30~15:30",
    "lat": 35.1365769,
    "lng": 129.084163
  },
  {
    "name": "남부경찰서",
    "address": "부산광역시 남구 황령대로 319번가길 81 부산남부경찰서",
    "tel": "1588-6200",
    "hours": "07:00~24:00",
    "lat": 35.1529527,
    "lng": 129.0897867
  },
  {
    "name": "남산동영업소",
    "address": "부산광역시 금정구 금강로 644",
    "tel": "1588-6200",
    "hours": "07:00~24:00",
    "lat": 35.2648198,
    "lng": 129.088811
  },
  {
    "name": "남양산지점",
    "address": "경남 양산시 양산역로 71 노바메디칼센터 1층",
    "tel": "1588-6200",
    "hours": "00:00~24:00",
    "lat": 35.3357242,
    "lng": 129.0287588
  },
  {
    "name": "남양산지점2층",
    "address": "경남 양산시 양산역로 71 (시간내) 노바메디칼센터 2층 *평일 09:00~16:00 이용/ 주말.공휴일 이용불가",
    "tel": "1588-6200",
    "hours": "09:30~15:30",
    "lat": 35.3357242,
    "lng": 129.0287588
  },
  {
    "name": "남천 코오롱 하늘채골든",
    "address": "부산광역시 수영구 남천동로 36 (케이엠타워 상가) *관리점 변경 (203->102)",
    "tel": "1588-6200",
    "hours": "07:00~24:00",
    "lat": 35.1412164,
    "lng": 129.1116528
  },
  {
    "name": "남천동지점",
    "address": "부산 수영구 황령대로473번길 15 엑슬루타워",
    "tel": "1588-6200",
    "hours": "07:00~24:00",
    "lat": 35.1401475,
    "lng": 129.1063592
  },
  {
    "name": "남포동 지하상가 13호",
    "address": "부산광역시 중구 자갈치로 30 (남포동6가, 코오롱상가)",
    "tel": "1588-6200",
    "hours": "07:00~24:00",
    "lat": 35.0965566,
    "lng": 129.0279009
  },
  {
    "name": "남포동 지하상가 73호",
    "address": "부산광역시 중구 자갈치로 30 (남포동6가, 코오롱상가)",
    "tel": "1588-6200",
    "hours": "07:00~24:00",
    "lat": 35.0965566,
    "lng": 129.0279009
  },
  {
    "name": "내성영업소",
    "address": "부산 동래구 충렬대로 118",
    "tel": "1588-6200",
    "hours": "07:00~24:00",
    "lat": 35.2061117,
    "lng": 129.0733562
  },
  {
    "name": "내외동지점",
    "address": "경남 김해시 내외중앙로 60 신한프라자 101호",
    "tel": "1588-6200",
    "hours": "07:00~24:00",
    "lat": 35.2351557,
    "lng": 128.8671181
  },
  {
    "name": "냉정역영업소",
    "address": "부산광역시 사상구 가야대로 370",
    "tel": "1588-6200",
    "hours": "00:00~24:00",
    "lat": 35.151021,
    "lng": 129.0128978
  },
  {
    "name": "녹산공단금융센터",
    "address": "부산광역시 강서구 녹산산단232로 38-26",
    "tel": "1588-6200",
    "hours": "07:00~24:00",
    "lat": 35.0866569,
    "lng": 128.840238
  },
  {
    "name": "녹산중앙",
    "address": "부산광역시 강서구 녹산산단355로 16",
    "tel": "1588-6200",
    "hours": "07:00~24:00",
    "lat": null,
    "lng": null
  },
  {
    "name": "농심호텔",
    "address": "부산광역시 동래구 금강공원로 20번길 23 호텔농심",
    "tel": "1588-6200",
    "hours": "08:00~03:00",
    "lat": 35.2202067,
    "lng": 129.0822819
  },
  {
    "name": "누리엔 빌딩",
    "address": "부산광역시 부산진구 자유평화로 11",
    "tel": "1588-6200",
    "hours": "07:00~24:00",
    "lat": 35.1417551,
    "lng": 129.0611948
  },
  {
    "name": "뉴코아 아울렛",
    "address": "부산광역시 사하구 사하로 190 (괴정동)",
    "tel": "1588-6200",
    "hours": "07:00~24:00",
    "lat": 35.0989884,
    "lng": 128.9940669
  },
  {
    "name": "다대2동지점",
    "address": "부산광역시 사하구 다대로 429번길 15",
    "tel": "1588-6200",
    "hours": "07:00~24:00",
    "lat": 35.0637388,
    "lng": 128.9807244
  },
  {
    "name": "다대포지점",
    "address": "부산광역시 사하구 다대로 544, 진요빌딩 104호",
    "tel": "1588-6200",
    "hours": "07:00~24:00",
    "lat": 35.0578274,
    "lng": 128.9709781
  },
  {
    "name": "당감 동일스위트",
    "address": "부산 부산진구 백양관문로 115 (당감동, 동일스위트아파트)",
    "tel": "1588-6200",
    "hours": "07:00~24:00",
    "lat": 35.1677096,
    "lng": 129.0257624
  },
  {
    "name": "당감4동무인점",
    "address": "부산광역시 부산진구 당감서로 81 (당감동)",
    "tel": "1588-6200",
    "hours": "07:00~24:00",
    "lat": 35.1676158,
    "lng": 129.0366853
  },
  {
    "name": "당감동지점",
    "address": "부산광역시 부산진구 당감로 48",
    "tel": "1588-6200",
    "hours": "07:00~01:00",
    "lat": 35.1658619,
    "lng": 129.0392872
  },
  {
    "name": "당리동지점",
    "address": "부산광역시 사하구 낙동대로 401-1",
    "tel": "1588-6200",
    "hours": "07:00~24:00",
    "lat": 35.1031559,
    "lng": 128.9740542
  },
  {
    "name": "당평지점",
    "address": "부산광역시 부산진구 백양관문로 7",
    "tel": "1588-6200",
    "hours": "07:00~24:00",
    "lat": 35.1602793,
    "lng": 129.0298645
  },
  {
    "name": "대구영업부",
    "address": "대구광역시 달서구 달구벌대로 1686, 송림타워",
    "tel": "1588-6200",
    "hours": "07:00~24:00",
    "lat": 35.8548082,
    "lng": 128.5504746
  },
  {
    "name": "대동병원",
    "address": "부산광역시 동래구 충렬대로 187 (명륜동)",
    "tel": "1588-6200",
    "hours": "07:00~24:00",
    "lat": 35.2042537,
    "lng": 129.0802032
  },
  {
    "name": "대신 협성르네상스",
    "address": "부산광역시 서구 대티로 159 (서대신동3가, 협성르네상스아파트)",
    "tel": "1588-6200",
    "hours": "07:00~24:00",
    "lat": 35.1132107,
    "lng": 129.0101181
  },
  {
    "name": "대신동지점",
    "address": "부산광역시 서구 구덕로 325",
    "tel": "1588-6200",
    "hours": "07:00~24:00",
    "lat": 35.1128008,
    "lng": 129.0161077
  },
  {
    "name": "대연 롯데캐슬레전드 상가",
    "address": "부산 남구 수영로 135 (대연동) 대연롯데캐슬레전드 상가",
    "tel": "1588-6200",
    "hours": "07:00~24:00",
    "lat": 35.1363591,
    "lng": 129.0811361
  },
  {
    "name": "대연 삼익그린아파트",
    "address": "부산광역시 남구 황령대로 319번가길 142 (대연동)",
    "tel": "1588-6200",
    "hours": "07:00~24:00",
    "lat": 35.1523921,
    "lng": 129.0876844
  },
  {
    "name": "대연3동(영)",
    "address": "부산 남구 황령대로319번가길 158-4 (점내시간내 *평일 09:00~16:00 이용 / 주말,공휴일 이용불가 )",
    "tel": "1588-6200",
    "hours": "09:00~16:00",
    "lat": 35.1520161,
    "lng": 129.0886245
  },
  {
    "name": "대연동금융센터",
    "address": "부산 남구 수영로 234 (대연동)",
    "tel": "1588-6200",
    "hours": "00:00~24:00",
    "lat": 35.1348831,
    "lng": 129.0922131
  },
  {
    "name": "대연청구APT",
    "address": "부산광역시 남구 황령대로319번가길 110 정문 출입구",
    "tel": "1588-6200",
    "hours": "01:00~24:00",
    "lat": 35.1542416,
    "lng": 129.0891587
  },
  {
    "name": "대우그린아파트",
    "address": "부산 남구 황령대로 319번가길 190-6",
    "tel": "1588-6200",
    "hours": "07:00~24:00",
    "lat": 35.1508893,
    "lng": 129.0878236
  },
  {
    "name": "대우마리나 2차 상가",
    "address": "부산광역시 해운대구 해운대해변로 141 (우동)",
    "tel": "1588-6200",
    "hours": "07:00~24:00",
    "lat": 35.1595804,
    "lng": 129.1485677
  },
  {
    "name": "대저동",
    "address": "부산광역시 강서구 낙동북로 477",
    "tel": "1588-6200",
    "hours": "07:00~24:00",
    "lat": 35.2122178,
    "lng": 128.98045
  },
  {
    "name": "대전영업부",
    "address": "대전 서구 둔산로 64 굿모닝빌딩 101호",
    "tel": "1588-6200",
    "hours": "07:00~24:00",
    "lat": 36.3510834,
    "lng": 127.3809338
  },
  {
    "name": "대한제강㈜ 녹산공장",
    "address": "부산광역시 강서구 녹산산업북로 333 (송정동)",
    "tel": "1588-6200",
    "hours": "08:00~22:00",
    "lat": 35.0995832,
    "lng": 128.859638
  },
  {
    "name": "더샵 센트럴 스타",
    "address": "부산광역시 부산진구 중앙대로666번길 50 (부전동)",
    "tel": "1588-6200",
    "hours": "07:00~24:00",
    "lat": 35.1519683,
    "lng": 129.0609102
  },
  {
    "name": "덕계 봉우아파트",
    "address": "경남 양산시 신명로 91 (평산동, 봉우아파트)",
    "tel": "1588-6200",
    "hours": "07:00~24:00",
    "lat": 35.3869341,
    "lng": 129.1431662
  },
  {
    "name": "덕계지점",
    "address": "경상남도 양산시 덕계로 91",
    "tel": "1588-6200",
    "hours": "07:00~24:00",
    "lat": 35.3757993,
    "lng": 129.1524478
  },
  {
    "name": "덕포동지점",
    "address": "부산광역시 사상구 사상로 305",
    "tel": "1588-6200",
    "hours": "07:00~24:00",
    "lat": 35.172082,
    "lng": 128.9829728
  },
  {
    "name": "동구청영업소",
    "address": "부산광역시 동구 구청로 1",
    "tel": "1588-6200",
    "hours": "07:00~24:00",
    "lat": 35.1292745,
    "lng": 129.0453253
  },
  {
    "name": "동김해지점",
    "address": "경상남도 김해시 인제로 57 향원당빌딩 2층",
    "tel": "1588-6200",
    "hours": "07:00~24:00",
    "lat": 35.2337984,
    "lng": 128.9045764
  },
  {
    "name": "동대신동영업소",
    "address": "부산광역시 서구 대영로 87",
    "tel": "1588-6200",
    "hours": "07:00~24:00",
    "lat": 35.1112663,
    "lng": 129.020661
  },
  {
    "name": "동래 베네스트 CC",
    "address": "부산 금정구 두구죽전1길 55 (두구동128,동래 베네스트 CC)",
    "tel": "1588-6200",
    "hours": "05:00~20:00",
    "lat": 35.2981763,
    "lng": 129.115156
  },
  {
    "name": "동래 우성아파트 입구",
    "address": "부산 동래구 복천로5번길 36",
    "tel": "1588-6200",
    "hours": "07:00~24:00",
    "lat": 35.2072947,
    "lng": 129.0871697
  },
  {
    "name": "동래교육청",
    "address": "부산광역시 동래구 동래로 179번길 31 (복천동)",
    "tel": "1588-6200",
    "hours": "07:00~22:00",
    "lat": 35.2052825,
    "lng": 129.090381
  },
  {
    "name": "동래구청 신청사",
    "address": "부산광역시 동래구 충렬대로 237번길 93",
    "tel": "051-1588-6200",
    "hours": "07:00~24:00",
    "lat": 35.2051555,
    "lng": 129.0836898
  },
  {
    "name": "동래금융센터 1층",
    "address": "부산광역시 동래구 명륜로 94번길 54",
    "tel": "1588-6200",
    "hours": "07:00~24:00",
    "lat": 35.2045134,
    "lng": 129.0842752
  },
  {
    "name": "동래금융센터 2층",
    "address": "부산광역시 동래구 명륜로 94번길 54 동래금융센터2층(시간내) *평일 09:00~16:00 이용/ 주말.공휴일 이용불가",
    "tel": "1588-6200",
    "hours": "09:30~15:30",
    "lat": 35.2045134,
    "lng": 129.0842752
  },
  {
    "name": "동명대학교영업소",
    "address": "부산 남구 신선로 428 산학협력관 (용당동,동명대학교)",
    "tel": "1588-6200",
    "hours": "08:00~22:00",
    "lat": 35.1220654,
    "lng": 129.1016625
  },
  {
    "name": "동부산 CC",
    "address": "경상남도 양산시 매곡외산로 282 (매곡동산100,동부산cc)",
    "tel": "1588-6200",
    "hours": "05:00~20:00",
    "lat": 35.3624067,
    "lng": 129.1842816
  },
  {
    "name": "동삼동무인점",
    "address": "부산광역시 영도구 중리로 46-1 (동삼동)",
    "tel": "1588-6200",
    "hours": "07:00~24:00",
    "lat": 35.0752268,
    "lng": 129.0684293
  },
  {
    "name": "동아대 본관",
    "address": "부산 사하구 낙동대로550번길 37 본관 (하단동,동아대학교)",
    "tel": "1588-6200",
    "hours": "07:00~24:00",
    "lat": 35.1161348,
    "lng": 128.9675078
  },
  {
    "name": "동아대학교영업소 (시간내)",
    "address": "부산 사하구 낙동대로550번길 37 (시간내) *평일 09:00~16:00 이용/ 주말.공휴일 이용불가",
    "tel": "1588-6200",
    "hours": "09:30~15:30",
    "lat": 35.1161348,
    "lng": 128.9675078
  },
  {
    "name": "동의과학대학교영업소",
    "address": "부산 부산진구 양지로 54",
    "tel": "1588-6200",
    "hours": "08:00~19:00",
    "lat": 35.1660105,
    "lng": 129.0725355
  },
  {
    "name": "두실지점",
    "address": "부산광역시 금정구 중앙대로 1939",
    "tel": "1588-6200",
    "hours": "07:00~24:00",
    "lat": 35.257473,
    "lng": 129.0909982
  },
  {
    "name": "디지털플레이스 남천삼익점",
    "address": "부산광역시 수영구 광안해변로 95 (2022.10.27 남천삼익(영) 폐쇄> 점외전환( 디지털플레이스 남천삼익점)",
    "tel": "1588-6200",
    "hours": "07:00~24:00",
    "lat": 35.1432151,
    "lng": 129.1139786
  },
  {
    "name": "디지털플레이스 대연혁신점",
    "address": "부산 남구 수영로 345 (대연동) 대연힐스테이트푸르지오 115동 101-1호",
    "tel": "1588-6200",
    "hours": "07:00~24:00",
    "lat": 35.1422158,
    "lng": 129.1010779
  },
  {
    "name": "디지털플레이스 센텀시티역점",
    "address": "부산 해운대구 우동 1524 (2023.10.16 오픈)",
    "tel": "051-1588-6200",
    "hours": "07:00~24:00",
    "lat": 35.1702207,
    "lng": 129.1341338
  },
  {
    "name": "롯데캐슬 몰운대점",
    "address": "부산 사하구 다대낙조2길 100 (다대동,다대동롯데캐슬몰운대아파트)",
    "tel": "1588-6200",
    "hours": "07:00~24:00",
    "lat": 35.0566344,
    "lng": 128.9654456
  },
  {
    "name": "롯데캐슬마린 아파트",
    "address": "부산광역시 해운대구 중동2로 34번길 29 (중동)",
    "tel": "1588-6200",
    "hours": "07:00~24:00",
    "lat": 35.1656363,
    "lng": 129.1653789
  },
  {
    "name": "마린제니스",
    "address": "부산광역시 해운대구 마린시티2로 33",
    "tel": "1588-6200",
    "hours": "07:00~24:00",
    "lat": 35.156667,
    "lng": 129.1450909
  },
  {
    "name": "마산지점",
    "address": "경상남도 창원시 마산회원구 봉양로 190 (시간내) *평일 09:00~16:00 이용/ 주말.공휴일 이용불가",
    "tel": "1588-6200",
    "hours": "09:30~15:30",
    "lat": 35.2168562,
    "lng": 128.6066147
  },
  {
    "name": "만덕 베르빌아파트",
    "address": "부산광역시 북구 만덕1로 8 만더베르빌아파트 (만덕동)",
    "tel": "1588-6200",
    "hours": "07:00~24:00",
    "lat": 35.2135518,
    "lng": 129.0374515
  },
  {
    "name": "만덕 벽산라인타운",
    "address": "부산광역시 북구 덕천로 182 (만덕동, 벽산라인아파트)",
    "tel": "1588-6200",
    "hours": "07:00~24:00",
    "lat": 35.2105821,
    "lng": 129.0240278
  },
  {
    "name": "만덕 3주공임대아파트",
    "address": "부산광역시 북구 함박봉로 140번길 21 (만덕동, 주공아파트3단지)",
    "tel": "1588-6200",
    "hours": "07:00~24:00",
    "lat": 35.2040072,
    "lng": 129.034236
  },
  {
    "name": "만덕동지점",
    "address": "부산광역시 북구 덕천로 299",
    "tel": "1588-6200",
    "hours": "07:00~24:00",
    "lat": 35.2097496,
    "lng": 129.0365451
  },
  {
    "name": "망미동지점",
    "address": "부산광역시 수영구 과정로 43",
    "tel": "1588-6200",
    "hours": "07:00~24:00",
    "lat": 35.1751671,
    "lng": 129.1072682
  },
  {
    "name": "메가마트 덕천점",
    "address": "부산광역시 북구 기찰로 164 (덕천동)",
    "tel": "1588-6200",
    "hours": "09:00~22:00",
    "lat": 35.2142434,
    "lng": 129.0229976
  },
  {
    "name": "메가마트 동래점 정문",
    "address": "부산광역시 동래구 충렬대로 197 (명륜동)",
    "tel": "1588-6200",
    "hours": "08:00~03:00",
    "lat": 35.2046412,
    "lng": 129.0811356
  },
  {
    "name": "메가마트 동래점 후문",
    "address": "부산 동래구 충렬대로 197 (명륜동, 메가마트)",
    "tel": "1588-6200",
    "hours": "08:00~03:00",
    "lat": 35.2046412,
    "lng": 129.0811356
  },
  {
    "name": "메리놀병원",
    "address": "부산광역시 중구 중구로 121 (대청동4가,메리놀병원1층)",
    "tel": "1588-6200",
    "hours": "00:00~24:00",
    "lat": 35.1076838,
    "lng": 129.0324148
  },
  {
    "name": "메트로자이영업소",
    "address": "부산 남구 신선로 566 (GS하이츠자이 145호 용호동)",
    "tel": "1588-6200",
    "hours": "07:00~24:00",
    "lat": 35.1327753,
    "lng": 129.1103946
  },
  {
    "name": "명륜동지점",
    "address": "부산광역시 동래구 명륜로 192",
    "tel": "1588-6200",
    "hours": "07:00~24:00",
    "lat": 35.2108835,
    "lng": 129.0828863
  },
  {
    "name": "명장동지점",
    "address": "부산광역시 동래구 반송로 325",
    "tel": "1588-6200",
    "hours": "07:00~24:00",
    "lat": 35.2085278,
    "lng": 129.103197
  },
  {
    "name": "명지",
    "address": "부산광역시 강서구 명지오션시티 11로 66",
    "tel": "1588-6200",
    "hours": "07:00~24:00",
    "lat": 35.0840394,
    "lng": 128.9031455
  },
  {
    "name": "명지 더샵퍼스트월드",
    "address": "부산광역시 강서구 명지국제7로 37 경비실 옆",
    "tel": "1588-6200",
    "hours": "07:00~24:00",
    "lat": 35.0989136,
    "lng": 128.9060116
  },
  {
    "name": "명지국제신도시",
    "address": "부산 강서구 명지국제8로 251 (명지동)",
    "tel": "1588-6200",
    "hours": "07:00~24:00",
    "lat": 35.0983522,
    "lng": 128.9204949
  },
  {
    "name": "모라 우신아파트",
    "address": "부산광역시 사상구 백양대로 880 (모라동, 우신아파트)",
    "tel": "1588-6200",
    "hours": "07:00~24:00",
    "lat": 35.1843799,
    "lng": 128.9915986
  },
  {
    "name": "모라동금융센터",
    "address": "부산광역시 사상구 사상로 448",
    "tel": "1588-6200",
    "hours": "07:00~24:00",
    "lat": 35.1843975,
    "lng": 128.986907
  },
  {
    "name": "몰운대영업소",
    "address": "부산광역시 사하구 다대로 702",
    "tel": "1588-6200",
    "hours": "07:00~24:00",
    "lat": 35.0490237,
    "lng": 128.9651331
  },
  {
    "name": "무거동지점(시간내)",
    "address": "울산광역시 남구 무거동 461 웰츠타워 114호,115호 (시간내) *평일 09:00~16:00 이용 / 주말 ,공휴일 이용불가",
    "tel": "1588-6200",
    "hours": "09:00~16:00",
    "lat": 35.5486146,
    "lng": 129.2632904
  },
  {
    "name": "문현1동 무인점",
    "address": "부산광역시 남구 고동골로 78번길 91 (문현동)",
    "tel": "1588-6200",
    "hours": "07:00~24:00",
    "lat": 35.1440203,
    "lng": 129.0764047
  },
  {
    "name": "문현동지점",
    "address": "부산광역시 남구 수영로 27",
    "tel": "1588-6200",
    "hours": "07:00~24:00",
    "lat": 35.137228,
    "lng": 129.0708708
  },
  {
    "name": "문현지게골 무인점",
    "address": "부산시 남구 지게골로 67",
    "tel": "1588-6200",
    "hours": "07:00~24:00",
    "lat": 35.1358083,
    "lng": 129.0715839
  },
  {
    "name": "물금신도시지점",
    "address": "경남 양산시 물금읍 야리로45 이플라자빌딩",
    "tel": "1588-6200",
    "hours": "07:00~24:00",
    "lat": 35.3158915,
    "lng": 129.0031179
  },
  {
    "name": "미남지점",
    "address": "부산 동래구 충렬대로107번길 65 316동 101호 (온천동,동래래미안아이파크)",
    "tel": "1588-6200",
    "hours": "07:00~24:00",
    "lat": 35.2108106,
    "lng": 129.071354
  },
  {
    "name": "민락동지점",
    "address": "부산 수영구 광안해변로 293 1층",
    "tel": "1588-6200",
    "hours": "07:00~24:00",
    "lat": 35.1565517,
    "lng": 129.1254663
  },
  {
    "name": "반도보라메머드타운",
    "address": "부산광역시 사상구 백양대로 372-22 (주례동,반도보라메머드타운)",
    "tel": "1588-6200",
    "hours": "07:00~24:00",
    "lat": 35.1547172,
    "lng": 129.0121942
  },
  {
    "name": "반송2동 무인점",
    "address": "부산 해운대구 신반송로 168 (반송 877-4)",
    "tel": "1588-6200",
    "hours": "07:00~24:00",
    "lat": 35.2287869,
    "lng": 129.16123
  },
  {
    "name": "반송동지점",
    "address": "부산광역시 해운대구 아랫반송로 21번길 34",
    "tel": "1588-6200",
    "hours": "07:00~24:00",
    "lat": 35.2261849,
    "lng": 129.1487041
  },
  {
    "name": "반송운봉영업소",
    "address": "부산광역시 해운대구 신반송로 208",
    "tel": "1588-6200",
    "hours": "07:00~24:00",
    "lat": 35.2307114,
    "lng": 129.1575904
  },
  {
    "name": "반여2동영업소",
    "address": "부산광역시 해운대구 재반로 213",
    "tel": "1588-6200",
    "hours": "07:00~24:00",
    "lat": 35.1962368,
    "lng": 129.1306583
  },
  {
    "name": "반여동지점",
    "address": "부산광역시 해운대구 선수촌로 21번길 7",
    "tel": "1588-6200",
    "hours": "07:00~24:00",
    "lat": 35.1959789,
    "lng": 129.1180957
  },
  {
    "name": "백양산 동문굿모닝힐 아파트",
    "address": "부산 북구 덕천로276번길 60 (만덕동)",
    "tel": "1588-6200",
    "hours": "07:00~24:00",
    "lat": 35.207631,
    "lng": 129.032675
  },
  {
    "name": "범내골지점",
    "address": "부산광역시 부산진구 중앙대로 618",
    "tel": "1588-6200",
    "hours": "07:00~24:00",
    "lat": 35.1478721,
    "lng": 129.0595951
  },
  {
    "name": "범어사 설법전",
    "address": "부산광역시 금정구 범어사로 250 (청룡동)",
    "tel": "1588-6200",
    "hours": "07:00~24:00",
    "lat": 35.2839568,
    "lng": 129.0680989
  },
  {
    "name": "범어사 BI마트",
    "address": "부산 금정구 청룡동 31-9번지",
    "tel": "1588-6200",
    "hours": "07:00~24:00",
    "lat": 35.2750007,
    "lng": 129.0902372
  },
  {
    "name": "범일 두산 위브포세이돈",
    "address": "부산광역시 동구 자성로 116번길 2",
    "tel": "1588-6200",
    "hours": "07:00~24:00",
    "lat": 35.1358118,
    "lng": 129.0639426
  },
  {
    "name": "범일동지점",
    "address": "부산 동구 범일로 92 부산은행 (시간내)",
    "tel": "1588-6200",
    "hours": "09:30~15:30",
    "lat": 35.1381965,
    "lng": 129.0598444
  },
  {
    "name": "범일동지점",
    "address": "부산 동구 범일로 92 부산은행 범일동 (범일동)",
    "tel": "1588-6200",
    "hours": "00:00~24:00",
    "lat": 35.1381965,
    "lng": 129.0598444
  },
  {
    "name": "범천동영업소",
    "address": "부산광역시 동구 중앙대로 538 (범일동)",
    "tel": "1588-6200",
    "hours": "07:00~24:00",
    "lat": 35.1412492,
    "lng": 129.0569323
  },
  {
    "name": "법원 등기국",
    "address": "부산 연제구 거제대로 261",
    "tel": "1588-6200",
    "hours": "07:00~22:00",
    "lat": 35.1905413,
    "lng": 129.0760477
  },
  {
    "name": "법원영업소",
    "address": "부산광역시 연제구 법원로 31 법원종합청사 1층",
    "tel": "1588-6200",
    "hours": "07:00~22:00",
    "lat": 35.1921968,
    "lng": 129.0729632
  },
  {
    "name": "법원종합청사5층",
    "address": "부산광역시 연제구 법원로 31 법원종합청사 5층",
    "tel": "1588-6200",
    "hours": "07:00~22:00",
    "lat": 35.1921968,
    "lng": 129.0729632
  },
  {
    "name": "법조타운지점",
    "address": "부산광역시 연제구 법원로 28",
    "tel": "1588-6200",
    "hours": "07:00~24:00",
    "lat": 35.1913896,
    "lng": 129.0742654
  },
  {
    "name": "베이사이드 CC",
    "address": "부산광역시 기장군 일광면 이천8길 100 (베이사이드 CC)",
    "tel": "1588-6200",
    "hours": "05:00~22:00",
    "lat": 35.2790704,
    "lng": 129.2427871
  },
  {
    "name": "벡스코영업소",
    "address": "부산 해운대구 APEC로 55",
    "tel": "1588-6200",
    "hours": "07:00~24:00",
    "lat": 35.1690975,
    "lng": 129.1363115
  },
  {
    "name": "벽산e-오렌지 프라자",
    "address": "부산광역시 해운대구 마린시티3로 23 (우동)",
    "tel": "1588-6200",
    "hours": "07:00~03:00",
    "lat": 35.1566471,
    "lng": 129.1469306
  },
  {
    "name": "보림프라자",
    "address": "부산광역시 동래구 안남로 23 (낙민동)",
    "tel": "1588-6200",
    "hours": "07:00~23:00",
    "lat": 35.194646,
    "lng": 129.0948221
  },
  {
    "name": "본장 지하몰 투표소",
    "address": "부산광역시 금정구 체육공원로 399번길 324 (두구동)",
    "tel": "1588-6200",
    "hours": "09:00~19:30",
    "lat": 35.2918295,
    "lng": 129.1051659
  },
  {
    "name": "본점 광장",
    "address": "부산 남구 문현금융로 30 (문현동)",
    "tel": "1588-6200",
    "hours": "00:00~24:00",
    "lat": 35.1456131,
    "lng": 129.0658778
  },
  {
    "name": "봉래동영업소",
    "address": "부산광역시 영도구 태종로 139",
    "tel": "1588-6200",
    "hours": "07:00~24:00",
    "lat": 35.0924145,
    "lng": 129.0442202
  },
  {
    "name": "부곡 대우 아파트",
    "address": "부산광역시 금정구 부산대학로 10 (부곡동)",
    "tel": "1588-6200",
    "hours": "07:00~24:00",
    "lat": 35.2328414,
    "lng": 129.0906882
  },
  {
    "name": "부곡 대우푸르지오",
    "address": "부산광역시 금정구 중앙대로 1617-12 (부곡동)",
    "tel": "1588-6200",
    "hours": "07:00~24:00",
    "lat": 35.2295618,
    "lng": 129.0904448
  },
  {
    "name": "부곡동 뉴그린아파트",
    "address": "부산광역시 금정구 동현로 103 (부곡동)",
    "tel": "1588-6200",
    "hours": "07:00~24:00",
    "lat": 35.2192393,
    "lng": 129.0956172
  },
  {
    "name": "부곡동지점",
    "address": "부산광역시 금정구 부곡로 117",
    "tel": "1588-6200",
    "hours": "07:00~24:00",
    "lat": 35.2263858,
    "lng": 129.0916227
  },
  {
    "name": "부산 국제금융센터 로비",
    "address": "부산광역시 남구 문현금융로 40 부산국제금융센터 1층 로비",
    "tel": "1588-6200",
    "hours": "07:00~24:00",
    "lat": 35.1472601,
    "lng": 129.0656311
  },
  {
    "name": "부산 상수도사업본부",
    "address": "부산광역시 부산진구 중앙대로 955 (양정동)",
    "tel": "1588-6200",
    "hours": "07:00~24:00",
    "lat": 35.1751651,
    "lng": 129.0723523
  },
  {
    "name": "부산 CC",
    "address": "부산광역시 금정구 중앙대로 2327번길 112 부산컨트리클럽",
    "tel": "1588-6200",
    "hours": "05:00~22:00",
    "lat": 35.2979499,
    "lng": 129.0919889
  },
  {
    "name": "부산대학교 병원",
    "address": "부산광역시 서구 구덕로 179 (아미동1가, 부산대학병원)",
    "tel": "1588-6200",
    "hours": "07:00~24:00",
    "lat": 35.1008477,
    "lng": 129.0188032
  },
  {
    "name": "부산서부지원영업소",
    "address": "부산 강서구 명지국제7로 77",
    "tel": "1588-6200",
    "hours": "07:00~24:00",
    "lat": 35.0973107,
    "lng": 128.9098686
  },
  {
    "name": "부산서부지청영업소",
    "address": "부산 강서구 명지국제로 7로 67 부산지방검찰청 서부지청",
    "tel": "1588-6200",
    "hours": "09:30~15:30",
    "lat": null,
    "lng": null
  },
  {
    "name": "부산시 학생교육문화회관",
    "address": "부산 부산진구 성지곡로 15 (초읍동)",
    "tel": "1588-6200",
    "hours": "07:00~24:00",
    "lat": 35.1841196,
    "lng": 129.0466939
  },
  {
    "name": "부산시교육청지점",
    "address": "부산광역시 부산진구 화지로 12",
    "tel": "1588-6200",
    "hours": "09:30~15:30",
    "lat": 35.1762599,
    "lng": 129.0646
  },
  {
    "name": "부산시민회관",
    "address": "부산광역시 동구 자성로 133번길 16 (범일동)",
    "tel": "1588-6200",
    "hours": "07:00~24:00",
    "lat": 35.1387422,
    "lng": 129.0651938
  },
  {
    "name": "부산시청1층로비",
    "address": "부산광역시 연제구 중앙대로 1001 (부산시청)",
    "tel": "1588-6200",
    "hours": "07:00~23:00",
    "lat": 35.1798159,
    "lng": 129.0750223
  },
  {
    "name": "부산시청2층",
    "address": "부산광역시 연제구 중앙대로 1001 (부산시청)",
    "tel": "1588-6200",
    "hours": "07:00~22:00",
    "lat": 35.1798159,
    "lng": 129.0750223
  },
  {
    "name": "부산시청지점",
    "address": "부산광역시 연제구 중앙대로 1001",
    "tel": "1588-6200",
    "hours": "09:30~15:30",
    "lat": 35.1798159,
    "lng": 129.0750223
  },
  {
    "name": "부산역무인점",
    "address": "부산광역시 동구 중앙대로 216 (초량동)",
    "tel": "1588-6200",
    "hours": "07:00~24:00",
    "lat": 35.1163248,
    "lng": 129.0408126
  },
  {
    "name": "부산외국어대학교영업소",
    "address": "부산 금정구 금샘로485번길 65",
    "tel": "1588-6200",
    "hours": "08:00~22:30",
    "lat": 35.2670499,
    "lng": 129.07905
  },
  {
    "name": "부산일보",
    "address": "부산 동구 중앙대로 365 (수정동)",
    "tel": "1588-6200",
    "hours": "07:00~24:00",
    "lat": 35.1285356,
    "lng": 129.0480043
  },
  {
    "name": "부산종합고용지원센터",
    "address": "부산광역시 부산진구 중앙대로 993 (양정동)",
    "tel": "1588-6200",
    "hours": "07:00~24:00",
    "lat": 35.1780157,
    "lng": 129.0746202
  },
  {
    "name": "부산지방경찰청2층",
    "address": "부산광역시 연제구 중앙대로 1001 (부산지방경찰청)",
    "tel": "1588-6200",
    "hours": "07:00~24:00",
    "lat": 35.1798159,
    "lng": 129.0750223
  },
  {
    "name": "부산진구청",
    "address": "부산광역시 부산진구 시민공원로 30 (부암동)",
    "tel": "1588-6200",
    "hours": "07:00~24:00",
    "lat": 35.1629129,
    "lng": 129.053157
  },
  {
    "name": "부산진구청영업소",
    "address": "부산광역시 부산진구 시민공원로 30",
    "tel": "1588-6200",
    "hours": "09:30~15:30",
    "lat": 35.1629129,
    "lng": 129.053157
  },
  {
    "name": "부전동금융센터 정문",
    "address": "부산광역시 부산진구 새싹로 1 (부전동)",
    "tel": "1588-6200",
    "hours": "06:00~24:00",
    "lat": 35.158268,
    "lng": 129.0584255
  },
  {
    "name": "부전동금융센터 후문",
    "address": "부산광역시 부산진구 새싹로 1 부산은행 부전동지점 (부전동)",
    "tel": "1588-6200",
    "hours": "06:00~24:00",
    "lat": 35.158268,
    "lng": 129.0584255
  },
  {
    "name": "부전시장영업소",
    "address": "부산광역시 부산진구 부전로 166",
    "tel": "1588-6200",
    "hours": "07:00~24:00",
    "lat": 35.1626487,
    "lng": 129.0591337
  },
  {
    "name": "부전역(시간내)",
    "address": "부산광역시 부산진구 중앙대로 807",
    "tel": "1588-6200",
    "hours": "09:30~15:30",
    "lat": 35.1638758,
    "lng": 129.0634487
  },
  {
    "name": "부전역지점",
    "address": "부산광역시 부산진구 중앙대로 807",
    "tel": "1588-6200",
    "hours": "07:00~24:00",
    "lat": 35.1638758,
    "lng": 129.0634487
  },
  {
    "name": "부천지점",
    "address": "경기 부천시 상동로 112 (썬프라자 2층 201호)",
    "tel": "1588-6200",
    "hours": "09:30~15:30",
    "lat": 37.507008,
    "lng": 126.7539017
  },
  {
    "name": "부평동지점",
    "address": "부산광역시 중구 대청로 56 (부평동2가)",
    "tel": "1588-6200",
    "hours": "07:00~24:00",
    "lat": 35.1028177,
    "lng": 129.0260718
  },
  {
    "name": "북구청 청사 별관",
    "address": "부산광역시 북구 낙동대로 1570번길 33 (구포동, 북구청)",
    "tel": "1588-6200",
    "hours": "07:00~24:00",
    "lat": 35.1972644,
    "lng": 128.990181
  },
  {
    "name": "북구청영업소",
    "address": "부산광역시 북구 낙동대로 1570번길 33",
    "tel": "1588-6200",
    "hours": "09:30~15:30",
    "lat": 35.1972644,
    "lng": 128.990181
  },
  {
    "name": "사동 무인점",
    "address": "부산광역시 사하구 승학로 151 (괴정동)",
    "tel": "1588-6200",
    "hours": "07:00~24:00",
    "lat": 35.1028444,
    "lng": 128.9835359
  },
  {
    "name": "사상공단지점",
    "address": "부산광역시 사상구 낙동대로 901",
    "tel": "1588-6200",
    "hours": "07:00~24:00",
    "lat": 35.1411492,
    "lng": 128.9698815
  },
  {
    "name": "사상구청1층",
    "address": "부산광역시 사상구 학감대로 242 (감전동)",
    "tel": "1588-6200",
    "hours": "08:00~22:00",
    "lat": 35.1526239,
    "lng": 128.99125
  },
  {
    "name": "사상구청영업소",
    "address": "부산광역시 사상구 학감대로 242",
    "tel": "1588-6200",
    "hours": "08:00~22:00",
    "lat": 35.1526239,
    "lng": 128.99125
  },
  {
    "name": "사상금융센터",
    "address": "부산광역시 사상구 사상로 5",
    "tel": "1588-6200",
    "hours": "07:00~24:00",
    "lat": 35.1504814,
    "lng": 128.9987749
  },
  {
    "name": "사상금융센터(시간내)",
    "address": "부산광역시 사상구 사상로 5",
    "tel": "1588-6200",
    "hours": "09:30~15:30",
    "lat": 35.1504814,
    "lng": 128.9987749
  },
  {
    "name": "사직동금융센터",
    "address": "부산광역시 동래구 아시아드대로 189",
    "tel": "1588-6200",
    "hours": "07:00~24:00",
    "lat": 35.2013168,
    "lng": 129.0647919
  },
  {
    "name": "사직운동장지점",
    "address": "부산광역시 동래구 사직북로 15",
    "tel": "1588-6200",
    "hours": "00:00~24:00",
    "lat": 35.197207,
    "lng": 129.0603621
  },
  {
    "name": "사직행복영업소",
    "address": "부산광역시 동래구 미남로 75",
    "tel": "1588-6200",
    "hours": "07:00~24:00",
    "lat": 35.2005733,
    "lng": 129.0696633
  },
  {
    "name": "사하골드그린빌딩",
    "address": "부산광역시 사하구 장평로 440 (괴정동)",
    "tel": "1588-6200",
    "hours": "07:00~24:00",
    "lat": 35.0975557,
    "lng": 128.9865889
  },
  {
    "name": "사하구청 제2청사",
    "address": "부산광역시 사하구 하신중앙로 185 사하구청 제2청사(1층 로비)",
    "tel": "1588-6200",
    "hours": "09:00~18:00",
    "lat": 35.0949676,
    "lng": 128.9615408
  },
  {
    "name": "사하구청영업소",
    "address": "부산광역시 사하구 낙동대로 398번길 12",
    "tel": "1588-6200",
    "hours": "09:30~15:30",
    "lat": 35.1045849,
    "lng": 128.974817
  },
  {
    "name": "삼계동지점",
    "address": "경상남도 김해시 삼계중앙로 37",
    "tel": "1588-6200",
    "hours": "07:00~24:00",
    "lat": 35.2608145,
    "lng": 128.8691966
  },
  {
    "name": "삼산동지점",
    "address": "울산광역시 남구 삼산로 262",
    "tel": "1588-6200",
    "hours": "07:00~24:00",
    "lat": 35.5387396,
    "lng": 129.3359171
  },
  {
    "name": "상공회의소",
    "address": "부산광역시 부산진구 황령대로 24 (범천동)",
    "tel": "1588-6200",
    "hours": "07:00~22:00",
    "lat": 35.1478594,
    "lng": 129.06223
  },
  {
    "name": "서구청영업소",
    "address": "부산광역시 서구 구덕로 120",
    "tel": "1588-6200",
    "hours": "07:00~24:00",
    "lat": 35.097932,
    "lng": 129.0244125
  },
  {
    "name": "서동영업소",
    "address": "부산광역시 금정구 서동로 75-7",
    "tel": "1588-6200",
    "hours": "07:00~24:00",
    "lat": 35.2179403,
    "lng": 129.0956526
  },
  {
    "name": "서면 롯데캐슬 스카이",
    "address": "부산광역시 부산진구 전포대로 275번길 20 (전포동)",
    "tel": "1588-6200",
    "hours": "07:00~24:00",
    "lat": 35.162153,
    "lng": 129.0642218
  },
  {
    "name": "서면롯데1번가(시간내)",
    "address": "부산광역시 부산진구 중앙대로691번길 32",
    "tel": "1588-6200",
    "hours": "09:30~15:30",
    "lat": 35.1546829,
    "lng": 129.0572573
  },
  {
    "name": "서면롯데1번가지점",
    "address": "부산광역시 부산진구 중앙대로691번길 32 (부전동)",
    "tel": "1588-6200",
    "hours": "07:00~24:00",
    "lat": 35.1546829,
    "lng": 129.0572573
  },
  {
    "name": "서면롯데지하상가",
    "address": "부산광역시 부산진구 가야대로 743 (부전동)",
    "tel": "1588-6200",
    "hours": "07:00~24:00",
    "lat": 35.1579005,
    "lng": 129.0528326
  },
  {
    "name": "서면점",
    "address": "부산광역시 부산진구 동천로 116 한신밴",
    "tel": "051-1588-6200",
    "hours": "07:00~24:00",
    "lat": 35.1590596,
    "lng": 129.0626299
  },
  {
    "name": "서부산유통단지",
    "address": "부산광역시 강서구 유통단지1로 41, 부산티플렉스 본관동 101호",
    "tel": "1588-6200",
    "hours": "07:00~24:00",
    "lat": 35.1674603,
    "lng": 128.9574676
  },
  {
    "name": "서울금융센터",
    "address": "서울특별시 중구 세종대로 55 부영태평빌딩 2층",
    "tel": "1588-6200",
    "hours": "09:00~16:00",
    "lat": 37.5616355,
    "lng": 126.9749466
  },
  {
    "name": "서창점",
    "address": "경상남도 양산시 삼호1길 36-5",
    "tel": "1588-6200",
    "hours": "07:00~24:00",
    "lat": 35.413406,
    "lng": 129.167531
  },
  {
    "name": "선수촌지점",
    "address": "부산광역시 해운대구 선수촌로 104-10",
    "tel": "1588-6200",
    "hours": "07:00~24:00",
    "lat": 35.2026807,
    "lng": 129.1199099
  },
  {
    "name": "성수동금융센터",
    "address": "서울특별시 성동구 성수일로12길 35 (성수동2가) 2층",
    "tel": "1588-6200",
    "hours": "09:30~15:30",
    "lat": 37.5476652,
    "lng": 127.0549961
  },
  {
    "name": "센텀 그린타워",
    "address": "부산광역시 해운대구 센텀중앙로 78 센텀그린타워 주출입구",
    "tel": "1588-6200",
    "hours": "07:00~24:00",
    "lat": 35.1746308,
    "lng": 129.1269785
  },
  {
    "name": "센텀금융센터",
    "address": "부산광역시 해운대구 센텀중앙로 78 (우동) 센텀그린타워 2층",
    "tel": "1588-6200",
    "hours": "09:30~15:30",
    "lat": 35.1746308,
    "lng": 129.1269785
  },
  {
    "name": "센텀삼익아파트",
    "address": "부산광역시 해운대구 해운대로61번가길 6 (재송동, 센텀삼익아파트)",
    "tel": "1588-6200",
    "hours": "07:00~24:00",
    "lat": 35.1911236,
    "lng": 129.1217899
  },
  {
    "name": "센텀파크영업소",
    "address": "부산광역시 해운대구 센텀중앙로 145",
    "tel": "1588-6200",
    "hours": "07:00~24:00",
    "lat": 35.1788329,
    "lng": 129.1219423
  },
  {
    "name": "소막마을 주민공동체센터",
    "address": "부산광역시 남구 우암번영로 19",
    "tel": "1588-6200",
    "hours": "07:00~24:00",
    "lat": 35.1260842,
    "lng": 129.070011
  },
  {
    "name": "송도영업소",
    "address": "부산광역시 서구 충무대로 35",
    "tel": "1588-6200",
    "hours": "07:00~24:00",
    "lat": 35.0787065,
    "lng": 129.0162824
  },
  {
    "name": "송정영업소",
    "address": "부산광역시 해운대구 송정중앙로 13",
    "tel": "1588-6200",
    "hours": "07:00~24:00",
    "lat": 35.1834243,
    "lng": 129.2023919
  },
  {
    "name": "수미무인점",
    "address": "부산광역시 수영구 망미로 22번길 28 (망미동)",
    "tel": "1588-6200",
    "hours": "07:00~24:00",
    "lat": 35.1709099,
    "lng": 129.1032078
  },
  {
    "name": "수안동지점",
    "address": "부산광역시 동래구 충렬대로 212 (수안동)",
    "tel": "1588-6200",
    "hours": "07:00~24:00",
    "lat": 35.2020703,
    "lng": 129.0824487
  },
  {
    "name": "수영구청영업소",
    "address": "부산광역시 수영구 남천동로 100",
    "tel": "1588-6200",
    "hours": "07:00~24:00",
    "lat": 35.1456939,
    "lng": 129.113186
  },
  {
    "name": "수영금융센터",
    "address": "부산광역시 수영구 수영로 693 수영타워 1층",
    "tel": "1588-6200",
    "hours": "07:00~24:00",
    "lat": 35.1679024,
    "lng": 129.1154764
  },
  {
    "name": "수영민락역영업소",
    "address": "부산광역시 수영구 수영로 741번길 12",
    "tel": "1588-6200",
    "hours": "07:00~24:00",
    "lat": 35.1685235,
    "lng": 129.1207925
  },
  {
    "name": "수영하수처리장경비실",
    "address": "부산광역시 동래구 온천천남로 185 (안락동)",
    "tel": "1588-6200",
    "hours": "07:00~23:00",
    "lat": 35.1890287,
    "lng": 129.1115238
  },
  {
    "name": "수원",
    "address": "경기도 수원시 팔달구 효원로 303 삼호파크타워 1층",
    "tel": "1588-6200",
    "hours": "09:00~16:00",
    "lat": 37.2613186,
    "lng": 127.0351481
  },
  {
    "name": "수정동지점",
    "address": "부산광역시 동구 고관로 125",
    "tel": "1588-6200",
    "hours": "07:00~24:00",
    "lat": 35.1297735,
    "lng": 129.0472198
  },
  {
    "name": "스포원영업소",
    "address": "부산광역시 금정구 체육공원로 399번길 324",
    "tel": "1588-6200",
    "hours": "09:00~22:00",
    "lat": 35.2918295,
    "lng": 129.1051659
  },
  {
    "name": "스포원파크",
    "address": "부산광역시 금정구 체육공원로399번길 324 (두구동)",
    "tel": "1588-6200",
    "hours": "10:00~22:00",
    "lat": 35.2918295,
    "lng": 129.1051659
  },
  {
    "name": "시화공단지점",
    "address": "경기도 시흥시 경기과기대로 219 (정왕동)",
    "tel": "1588-6200",
    "hours": "07:00~24:00",
    "lat": 37.33449,
    "lng": 126.7325859
  },
  {
    "name": "신개금영업소",
    "address": "부산광역시 부산진구 백양대로 300번길 19",
    "tel": "1588-6200",
    "hours": "07:00~23:00",
    "lat": 35.1562067,
    "lng": 129.0177338
  },
  {
    "name": "신덕포영업소",
    "address": "부산광역시 사상구 덕상로 22",
    "tel": "1588-6200",
    "hours": "07:00~24:00",
    "lat": 35.1733873,
    "lng": 128.9896075
  },
  {
    "name": "신라대학교영업소",
    "address": "부산광역시 사상구 백양대로700번길 140",
    "tel": "1588-6200",
    "hours": "07:00~22:00",
    "lat": 35.1682791,
    "lng": 128.9977086
  },
  {
    "name": "신만덕영업소",
    "address": "부산광역시 북구 덕천로 234번길 5",
    "tel": "1588-6200",
    "hours": "07:00~24:00",
    "lat": 35.2102203,
    "lng": 129.0299002
  },
  {
    "name": "신모라영업소",
    "address": "부산광역시 사상구 백양대로 923",
    "tel": "1588-6200",
    "hours": "07:00~24:00",
    "lat": 35.188718,
    "lng": 128.9908796
  },
  {
    "name": "신좌동점",
    "address": "부산광역시 해운대구 좌동순환로 301",
    "tel": "1588-6200",
    "hours": "07:00~24:00",
    "lat": 35.1691765,
    "lng": 129.1832772
  },
  {
    "name": "신주례 LG아파트 2단지",
    "address": "부산광역시 사상구 백양대로342번길 17 (주례동, 엘지신주례아파트)",
    "tel": "1588-6200",
    "hours": "07:00~24:00",
    "lat": 35.1540681,
    "lng": 129.0132729
  },
  {
    "name": "신창동 정문",
    "address": "부산광역시 중구 광복중앙로 13",
    "tel": "1588-6200",
    "hours": "00:00~24:00",
    "lat": 35.1005125,
    "lng": 129.0307891
  },
  {
    "name": "신창동 후문",
    "address": "부산광역시 중구 광복중앙로 13",
    "tel": "1588-6200",
    "hours": "07:00~24:00",
    "lat": 35.1005125,
    "lng": 129.0307891
  },
  {
    "name": "신평동금융센터",
    "address": "부산광역시 사하구 장평로 278",
    "tel": "1588-6200",
    "hours": "07:00~24:00",
    "lat": 35.0909992,
    "lng": 128.9734198
  },
  {
    "name": "신평동금융센터(시간내)",
    "address": "부산광역시 사하구 장평로 278 (시간내)",
    "tel": "1588-6200",
    "hours": "09:30~15:30",
    "lat": 35.0909992,
    "lng": 128.9734198
  },
  {
    "name": "신평역영업소",
    "address": "부산광역시 사하구 하신번영로 183",
    "tel": "1588-6200",
    "hours": "07:00~24:00",
    "lat": 35.0986864,
    "lng": 128.9601688
  },
  {
    "name": "신호동 부영아파트",
    "address": "부산광역시 강서구 신호산단5로 31 (신호동) 부영사랑으로 3차 상가동",
    "tel": "1588-6200",
    "hours": "07:00~24:00",
    "lat": 35.0845217,
    "lng": 128.8758209
  },
  {
    "name": "아미동영업소",
    "address": "부산광역시 서구 까치고개로 191",
    "tel": "1588-6200",
    "hours": "07:00~24:00",
    "lat": 35.1002227,
    "lng": 129.0169769
  },
  {
    "name": "아시아드 CC",
    "address": "부산광역시 기장군 일광면 차양길 26 (일광면, 아시아드CC)",
    "tel": "1588-6200",
    "hours": "05:00~21:00",
    "lat": 35.2871683,
    "lng": 129.2401685
  },
  {
    "name": "안락 SK1차 아파트",
    "address": "부산광역시 동래구 충렬대로 487 안락1차 아파트",
    "tel": "1588-6200",
    "hours": "07:00~24:00",
    "lat": 35.1959826,
    "lng": 129.1115735
  },
  {
    "name": "안락1동영업소",
    "address": "부산광역시 동래구 안락로 67",
    "tel": "1588-6200",
    "hours": "07:00~24:00",
    "lat": 35.1996632,
    "lng": 129.1043957
  },
  {
    "name": "안락동 경동리인 아파트",
    "address": "부산 동래구 충렬대로446번길 67 (안락동)",
    "tel": "1588-6200",
    "hours": "07:00~24:00",
    "lat": 35.1919266,
    "lng": 129.1060636
  },
  {
    "name": "안락동지점",
    "address": "부산광역시 동래구 충렬대로 353",
    "tel": "1588-6200",
    "hours": "07:00~24:00",
    "lat": 35.1985923,
    "lng": 129.0974971
  },
  {
    "name": "안락뜨란채 2단지",
    "address": "부산광역시 동래구 연안로 74 (안락동)",
    "tel": "1588-6200",
    "hours": "07:00~24:00",
    "lat": 35.1927377,
    "lng": 129.1096267
  },
  {
    "name": "야음동지점",
    "address": "울산광역시 남구 수암로 149번길 9",
    "tel": "1588-6200",
    "hours": "07:00~24:00",
    "lat": 35.527582,
    "lng": 129.3224429
  },
  {
    "name": "양산금융센터점",
    "address": "경상남도 양산시 중앙로 200 (북부동)",
    "tel": "1588-6200",
    "hours": "07:00~24:00",
    "lat": 35.3484721,
    "lng": 129.0403843
  },
  {
    "name": "양산석산지점",
    "address": "경상남도 양산시 동면 금오13길 12",
    "tel": "1588-6200",
    "hours": "07:00~24:00",
    "lat": 35.3168206,
    "lng": 129.0256779
  },
  {
    "name": "양정 현대무인점",
    "address": "부산광역시 부산진구 거제대로 37 (양정동)",
    "tel": "1588-6200",
    "hours": "07:00~24:00",
    "lat": 35.1719652,
    "lng": 129.0649166
  },
  {
    "name": "양정동지점",
    "address": "부산광역시 부산진구 중앙대로 932",
    "tel": "1588-6200",
    "hours": "07:00~24:00",
    "lat": 35.1728584,
    "lng": 129.0715562
  },
  {
    "name": "양정현대 1차",
    "address": "부산 부산진구 동평로 352 (1차) (양정동,현대1차아파트)",
    "tel": "1588-6200",
    "hours": "07:00~24:00",
    "lat": 35.1733576,
    "lng": 129.0632962
  },
  {
    "name": "언양지점",
    "address": "울산광역시 울주군 삼남면 중평로 27",
    "tel": "1588-6200",
    "hours": "07:00~24:00",
    "lat": 35.5577732,
    "lng": 129.1198808
  },
  {
    "name": "엄궁 롯데 캐슬리버",
    "address": "부산광역시 사상구 엄궁북로 62 (엄궁동)",
    "tel": "1588-6200",
    "hours": "07:00~24:00",
    "lat": 35.1273543,
    "lng": 128.975702
  },
  {
    "name": "엄궁동점",
    "address": "부산 사상구 낙동대로 733 롯데마트사상점",
    "tel": "1588-6200",
    "hours": "10:00~23:00",
    "lat": 35.1276629,
    "lng": 128.9683725
  },
  {
    "name": "에이원 CC",
    "address": "경남 양산시 덕명로 190 (매곡동, 에이원컨트리클럽)",
    "tel": "1588-6200",
    "hours": "05:00~20:00",
    "lat": 35.3776936,
    "lng": 129.176056
  },
  {
    "name": "여의도지점",
    "address": "서울 영등포구 국제금융로2길 24 BNK금융타워 10층",
    "tel": "1588-6200",
    "hours": "09:30~15:30",
    "lat": 37.5243159,
    "lng": 126.9248449,
    "note": "평일 09:00~16:00 / 주말·공휴일 이용불가"
  },
  {
    "name": "연미무인점",
    "address": "부산광역시 수영구 연수로 259 (망미동)",
    "tel": "1588-6200",
    "hours": "07:00~24:00",
    "lat": 35.1733358,
    "lng": 129.0992017
  },
  {
    "name": "연미지점",
    "address": "부산광역시 연제구 연수로 215",
    "tel": "1588-6200",
    "hours": "07:00~24:00",
    "lat": 35.1738907,
    "lng": 129.0942777
  },
  {
    "name": "연산 LG아파트",
    "address": "부산광역시 연제구 고분로 200 (연산동)",
    "tel": "1588-6200",
    "hours": "07:00~24:00",
    "lat": 35.18486,
    "lng": 129.1031995
  },
  {
    "name": "연산동 해암빌딩",
    "address": "부산광역시 연제구 중앙대로 1099 해암빌딩 1층 로비",
    "tel": "1588-6200",
    "hours": "07:00~24:00",
    "lat": 35.1858783,
    "lng": 129.0807255
  },
  {
    "name": "연산동금융센터",
    "address": "부산 연제구 중앙대로 1073 (연산동)",
    "tel": "1588-6200",
    "hours": "07:00~24:00",
    "lat": 35.1840554,
    "lng": 129.0796434
  },
  {
    "name": "연산동금융센터(시간내)",
    "address": "부산 연제구 중앙대로 1073",
    "tel": "1588-6200",
    "hours": "09:30~15:30",
    "note": "평일 09:00~16:00 / 주말·공휴일 이용불가",
    "lat": 35.1840554,
    "lng": 129.0796434
  },
  {
    "name": "연산자이아파트",
    "address": "부산광역시 연제구 과정로343번길 43 관리사무소 입구",
    "tel": "1588-6200",
    "hours": "01:00~24:00",
    "lat": 35.1887655,
    "lng": 129.0890537
  },
  {
    "name": "연서지점",
    "address": "부산광역시 연제구 세병로 39",
    "tel": "1588-6200",
    "hours": "07:00~24:00",
    "lat": 35.1920266,
    "lng": 129.0834727
  },
  {
    "name": "연안영업소",
    "address": "부산광역시 동래구 안연로 74 (안락동)",
    "tel": "1588-6200",
    "hours": "07:00~24:00",
    "lat": 35.1938974,
    "lng": 129.0988464
  },
  {
    "name": "연일무인점",
    "address": "부산광역시 연제구 고분로 32 (연산동)",
    "tel": "1588-6200",
    "hours": "07:00~24:00",
    "lat": 35.1855322,
    "lng": 129.0859958
  },
  {
    "name": "연제구청 옥외",
    "address": "부산광역시 연제구 연제로 2 (연산동)",
    "tel": "1588-6200",
    "hours": "07:00~24:00",
    "lat": 35.1762419,
    "lng": 129.079764
  },
  {
    "name": "연제구청영업소",
    "address": "부산광역시 연제구 연제로 2",
    "tel": "1588-6200",
    "hours": "09:30~15:30",
    "note": "평일 09:00~16:00 / 주말·공휴일 이용불가",
    "lat": 35.1762419,
    "lng": 129.079764
  },
  {
    "name": "연지동지점",
    "address": "부산광역시 부산진구 새싹로 144",
    "tel": "1588-6200",
    "hours": "07:00~24:00",
    "lat": 35.1691618,
    "lng": 129.0505397
  },
  {
    "name": "연천지점",
    "address": "부산광역시 연제구 과정로 276",
    "tel": "1588-6200",
    "hours": "07:00~24:00",
    "lat": 35.1881942,
    "lng": 129.0972667
  },
  {
    "name": "영도 동삼 그린힐 아파트",
    "address": "부산광역시 영도구 상리로 1 (동삼동)",
    "tel": "1588-6200",
    "hours": "07:00~24:00",
    "lat": 35.0864091,
    "lng": 129.0682196
  },
  {
    "name": "영도구청",
    "address": "부산광역시 영도구 태종로 423 (청학동)",
    "tel": "1588-6200",
    "hours": "09:00~21:00",
    "lat": 35.0911989,
    "lng": 129.067875
  },
  {
    "name": "영도구청영업소",
    "address": "부산광역시 영도구 태종로 423",
    "tel": "1588-6200",
    "hours": "07:00~24:00",
    "lat": 35.0911989,
    "lng": 129.067875
  },
  {
    "name": "영도금융센터",
    "address": "부산광역시 영도구 절영로 27",
    "tel": "1588-6200",
    "hours": "07:00~24:00",
    "lat": 35.0918278,
    "lng": 129.039739
  },
  {
    "name": "영도동삼동",
    "address": "부산광역시 영도구 웃서발로 86 한나타워",
    "tel": "1588-6200",
    "hours": "07:00~24:00",
    "lat": 35.0788079,
    "lng": 129.0713552
  },
  {
    "name": "영락공원",
    "address": "부산광역시 금정구 금정도서관로 108 (두구동)",
    "tel": "1588-6200",
    "hours": "00:00~24:00",
    "note": "BNK 직영 24시간",
    "lat": 35.2737679,
    "lng": 129.1042206
  },
  {
    "name": "영선동영업소",
    "address": "부산광역시 영도구 영선대로 75",
    "tel": "1588-6200",
    "hours": "07:00~24:00",
    "lat": 35.0877774,
    "lng": 129.0417146
  },
  {
    "name": "영업부",
    "address": "부산 남구 문현금융로 30",
    "tel": "1588-6200",
    "hours": "07:00~24:00",
    "lat": 35.1456131,
    "lng": 129.0658778
  },
  {
    "name": "영주 동아 아파트",
    "address": "부산광역시 중구 영주로 59 영주 동아11블럭 아파트",
    "tel": "1588-6200",
    "hours": "07:00~24:00",
    "lat": 35.1126078,
    "lng": 129.0300795
  },
  {
    "name": "영주동영업소",
    "address": "부산 중구 대영로 224 (영주동)",
    "tel": "1588-6200",
    "hours": "07:00~23:00",
    "lat": 35.1118304,
    "lng": 129.0352687
  },
  {
    "name": "오륙도SK뷰점",
    "address": "부산 남구 오륙도로 85 상가2동",
    "tel": "1588-6200",
    "hours": "01:00~24:00",
    "lat": 35.1030157,
    "lng": 129.1193262
  },
  {
    "name": "온천동지점",
    "address": "부산 동래구 금강공원로 13-1 (온천동)",
    "tel": "1588-6200",
    "hours": "00:00~24:00",
    "note": "BNK 직영 24시간",
    "lat": 35.2184325,
    "lng": 129.0827266
  },
  {
    "name": "온천반도보라스카이뷰",
    "address": "부산광역시 동래구 아시아드대로 234 104동 앞",
    "tel": "1588-6200",
    "hours": "01:00~24:00",
    "lat": 35.204255,
    "lng": 129.0686636
  },
  {
    "name": "용당 현대아이파크APT",
    "address": "부산광역시 남구 동명로 26 (용당동)",
    "tel": "1588-6200",
    "hours": "07:00~24:00",
    "lat": 35.1189475,
    "lng": 129.0990645
  },
  {
    "name": "용당세관 무인점",
    "address": "부산 남구 신선로 323 (용당동)",
    "tel": "1588-6200",
    "hours": "07:00~24:00",
    "lat": 35.1148949,
    "lng": 129.0949658
  },
  {
    "name": "용당지점",
    "address": "부산광역시 남구 유엔평화로 165",
    "tel": "1588-6200",
    "hours": "07:00~24:00",
    "lat": 35.1219897,
    "lng": 129.0985379
  },
  {
    "name": "용원지점",
    "address": "경상남도 창원시 진해구 안골로 338, 드림빌딩 1층",
    "tel": "1588-6200",
    "hours": "07:00~24:00",
    "lat": 35.101288,
    "lng": 128.8099382
  },
  {
    "name": "용호동지점",
    "address": "부산광역시 남구 용호로 141",
    "tel": "1588-6200",
    "hours": "07:00~24:00",
    "lat": 35.1193884,
    "lng": 129.1122342
  },
  {
    "name": "용호성모병원",
    "address": "부산 남구 용호로 232번길 25-14 (용호동, 부산성모병원)",
    "tel": "1588-6200",
    "hours": "07:00~24:00",
    "lat": 35.110457,
    "lng": 129.109125
  },
  {
    "name": "우1동무인점",
    "address": "부산광역시 해운대구 우동1로 20번가길 53 (우동)",
    "tel": "1588-6200",
    "hours": "07:00~24:00",
    "lat": 35.1671652,
    "lng": 129.1579095
  },
  {
    "name": "우동 센텀센시빌APT",
    "address": "부산광역시 해운대구 해운대로 284",
    "tel": "1588-6200",
    "hours": "07:00~24:00",
    "lat": 35.1754142,
    "lng": 129.1293902
  },
  {
    "name": "울산금융센터(1층)",
    "address": "울산 남구 두왕로154번길 13 (선암동)",
    "tel": "1588-6200",
    "hours": "06:00~23:00",
    "lat": 35.5156038,
    "lng": 129.3106905
  },
  {
    "name": "울산중앙지점",
    "address": "울산 중구 번영로 329",
    "tel": "1588-6200",
    "hours": "07:00~24:00",
    "lat": 35.5549871,
    "lng": 129.3238328
  },
  {
    "name": "울산호계지점",
    "address": "울산광역시 북구 호계로 328",
    "tel": "1588-6200",
    "hours": "07:00~24:00",
    "lat": 35.632499,
    "lng": 129.3505784
  },
  {
    "name": "이기대영업소",
    "address": "부산 남구 용호로 190-1 (용호동)",
    "tel": "1588-6200",
    "hours": "07:00~24:00",
    "lat": 35.1152805,
    "lng": 129.1107217
  },
  {
    "name": "이마트 금정점",
    "address": "부산 금정구 중앙대로 1841번길 24 (구서동, E마트금정점)",
    "tel": "1588-6200",
    "hours": "09:00~24:00",
    "lat": 35.2499563,
    "lng": 129.0906011
  },
  {
    "name": "이마트 해운대점",
    "address": "부산광역시 해운대구 좌동순환로 511 (중동)",
    "tel": "1588-6200",
    "hours": "07:00~24:00",
    "lat": 35.1660122,
    "lng": 129.1673813
  },
  {
    "name": "인천지점",
    "address": "인천광역시 남동구 은청로 9",
    "tel": "1588-6200",
    "hours": "07:00~24:00",
    "lat": 37.4077802,
    "lng": 126.6939333
  },
  {
    "name": "일광",
    "address": "부산광역시 기장군 일광면 햇빛로 17 네오 더 퍼스트상가 202",
    "tel": "1588-6200",
    "hours": "07:00~24:00",
    "lat": null,
    "lng": null
  },
  {
    "name": "일광(시간내)",
    "address": "부산광역시 기장군 일광면 햇빛로 17 (시간내) 네오 더 퍼스트상가 202 *평일 09:00~16:00 이용/ 주말·공휴일 이용불가",
    "tel": "1588-6200",
    "hours": "09:30~15:30",
    "lat": null,
    "lng": null
  },
  {
    "name": "장림 동원로얄듀크",
    "address": "부산광역시 사하구 하신중앙로 2 (장림동)",
    "tel": "1588-6200",
    "hours": "07:00~24:00",
    "lat": 35.0781485,
    "lng": 128.9648456
  },
  {
    "name": "장림동 (2층)",
    "address": "부산광역시 사하구 장림번영로 35 (시간내) *평일 09:00~16:00 이용/ 주말·공휴일 이용불가",
    "tel": "1588-6200",
    "hours": "09:30~15:30",
    "lat": 35.0808515,
    "lng": 128.969187
  },
  {
    "name": "장림동지점",
    "address": "부산광역시 사하구 장림번영로 35",
    "tel": "1588-6200",
    "hours": "07:00~24:00",
    "lat": 35.0808515,
    "lng": 128.969187
  },
  {
    "name": "장산지점",
    "address": "부산광역시 해운대구 세실로 43",
    "tel": "1588-6200",
    "hours": "00:00~24:00",
    "lat": 35.1687646,
    "lng": 129.17845
  },
  {
    "name": "장안산단 무인점",
    "address": "부산 기장군 장안읍 장안산단3로 43 (반룡리)",
    "tel": "1588-6200",
    "hours": "07:00~24:00",
    "lat": 35.3330145,
    "lng": 129.2632755
  },
  {
    "name": "장유지점",
    "address": "경상남도 김해시 장유면 계동로 233",
    "tel": "1588-6200",
    "hours": "07:00~24:00",
    "lat": null,
    "lng": null
  },
  {
    "name": "장전1동무인점",
    "address": "부산광역시 금정구 금강로 379번길 7 (장전동)",
    "tel": "1588-6200",
    "hours": "07:00~24:00",
    "lat": 35.2418396,
    "lng": 129.0859061
  },
  {
    "name": "장전동지점",
    "address": "부산 금정구 금정로 75 (장전동)",
    "tel": "1588-6200",
    "hours": "00:00~24:00",
    "lat": 35.2313513,
    "lng": 129.0863558
  },
  {
    "name": "장전역점",
    "address": "부산광역시 금정구 금강로 338",
    "tel": "1588-6200",
    "hours": "07:00~24:00",
    "lat": 35.2380558,
    "lng": 129.0866712
  },
  {
    "name": "재송 동부센트레빌",
    "address": "부산광역시 해운대구 해운대로 161번길 12",
    "tel": "1588-6200",
    "hours": "07:00~24:00",
    "lat": 35.1830523,
    "lng": 129.1235158
  },
  {
    "name": "재송 우신골든빌APT",
    "address": "부산광역시 해운대구 재반로 125번길 30 (재송동)",
    "tel": "1588-6200",
    "hours": "07:00~24:00",
    "lat": 35.1903883,
    "lng": 129.1248894
  },
  {
    "name": "재송동(시간내)",
    "address": "부산 해운대구 재반로 107 (재송동) (시간내) *평일 09:00~16:00 이용/ 주말·공휴일 이용불가",
    "tel": "1588-6200",
    "hours": "09:30~15:30",
    "lat": 35.1880917,
    "lng": 129.126034
  },
  {
    "name": "재송동점",
    "address": "부산 해운대구 재반로 107 (재송동) 1층",
    "tel": "1588-6200",
    "hours": "07:00~24:00",
    "lat": 35.1880917,
    "lng": 129.126034
  },
  {
    "name": "전포역지점",
    "address": "부산광역시 부산진구 전포대로 200",
    "tel": "1588-6200",
    "hours": "07:00~24:00",
    "lat": 35.1543329,
    "lng": 129.0657796
  },
  {
    "name": "전포카페거리점",
    "address": "부산광역시 부산진구 동천로 55 (2023.05.10 운영형태 전환: 점내365 → 점외365 / 2층 영업점)",
    "tel": "1588-6200",
    "hours": "00:00~24:00",
    "lat": 35.1537645,
    "lng": 129.0621252
  },
  {
    "name": "정관모전영업소",
    "address": "부산광역시 기장군 정관면 정관로 395",
    "tel": "1588-6200",
    "hours": "07:00~24:00",
    "lat": 35.3341599,
    "lng": 129.1660003
  },
  {
    "name": "정관지점",
    "address": "부산광역시 기장군 정관면 정관7로 3",
    "tel": "1588-6200",
    "hours": "07:00~24:00",
    "lat": 35.3224173,
    "lng": 129.175956
  },
  {
    "name": "좌동 건영1차아파트",
    "address": "부산광역시 해운대구 좌동순환로 217번길 19 (좌동)",
    "tel": "1588-6200",
    "hours": "07:00~24:00",
    "lat": 35.1776097,
    "lng": 129.1811215
  },
  {
    "name": "좌동 건영2차아파트",
    "address": "부산광역시 해운대구 세실로 126, 건영2차 (좌동)",
    "tel": "1588-6200",
    "hours": "07:00~24:00",
    "lat": 35.1751226,
    "lng": 129.1763103
  },
  {
    "name": "좌동지점",
    "address": "부산광역시 해운대구 대천로 103번길 29",
    "tel": "1588-6200",
    "hours": "07:00~24:00",
    "lat": 35.1767671,
    "lng": 129.1730542
  },
  {
    "name": "주례 창조센츄리",
    "address": "부산광역시 사상구 가야대로 288 (주례동)",
    "tel": "1588-6200",
    "hours": "07:00~24:00",
    "lat": 35.1500801,
    "lng": 129.004055
  },
  {
    "name": "주례 청구 아파트",
    "address": "부산광역시 사상구 백양대로 494번길 12",
    "tel": "1588-6200",
    "hours": "07:00~24:00",
    "lat": 35.1543639,
    "lng": 128.9985084
  },
  {
    "name": "중구청영업소",
    "address": "부산광역시 중구 중구로 120",
    "tel": "1588-6200",
    "hours": "07:00~24:00",
    "lat": 35.1062139,
    "lng": 129.032352
  },
  {
    "name": "중부",
    "address": "부산광역시 중구 중앙대로 21",
    "tel": "1588-6200",
    "hours": "07:00~24:00",
    "lat": 35.0995032,
    "lng": 129.0361357
  },
  {
    "name": "중앙동금융센터",
    "address": "부산광역시 중구 중앙대로 96",
    "tel": "1588-6200",
    "hours": "07:00~24:00",
    "lat": 35.1062696,
    "lng": 129.0365814
  },
  {
    "name": "중앙동금융센터(시간내)",
    "address": "부산광역시 중구 중앙대로 96 (시간내) *평일 09:00~16:00 이용 / 주말·공휴일 불가",
    "tel": "1588-6200",
    "hours": "09:30~15:30",
    "lat": 35.1062696,
    "lng": 129.0365814
  },
  {
    "name": "진영지점",
    "address": "경상남도 김해시 진영읍 서부로 15 워커힐 B/D 1층",
    "tel": "1588-6200",
    "hours": "07:00~24:00",
    "lat": 35.2944594,
    "lng": 128.7636216
  },
  {
    "name": "창원지점",
    "address": "경상남도 창원시 성산구 중앙대로 93 라큐비오피스텔 205호",
    "tel": "1588-6200",
    "hours": "07:00~24:00",
    "lat": 35.2232893,
    "lng": 128.6788936
  },
  {
    "name": "청학동지점",
    "address": "부산광역시 영도구 태종로 321",
    "tel": "1588-6200",
    "hours": "07:00~24:00",
    "lat": 35.0968011,
    "lng": 129.0611707
  },
  {
    "name": "초량동지점",
    "address": "부산광역시 동구 중앙대로 251번길 29",
    "tel": "1588-6200",
    "hours": "07:00~24:00",
    "lat": 35.1197353,
    "lng": 129.040186
  },
  {
    "name": "초읍 무인점",
    "address": "부산광역시 부산진구 성지로 77 (초읍동)",
    "tel": "1588-6200",
    "hours": "07:00~24:00",
    "lat": 35.177373,
    "lng": 129.0538086
  },
  {
    "name": "초읍동영업소",
    "address": "부산광역시 부산진구 성지로 52",
    "tel": "1588-6200",
    "hours": "07:00~24:00",
    "lat": 35.1752355,
    "lng": 129.0549429
  },
  {
    "name": "충무동",
    "address": "부산광역시 서구 충무대로 280",
    "tel": "1588-6200",
    "hours": "07:00~24:00",
    "lat": 35.0955819,
    "lng": 129.024613
  },
  {
    "name": "충무동 무인점",
    "address": "부산광역시 서구 충무대로 255번길 9 (남부민동)",
    "tel": "1588-6200",
    "hours": "07:00~24:00",
    "lat": 35.0931198,
    "lng": 129.0232865
  },
  {
    "name": "코스트코 부산점",
    "address": "부산광역시 수영구 구락로 137 (망미동, 코스트코 부산홈세일)",
    "tel": "1588-6200",
    "hours": "09:00~23:00",
    "lat": 35.1784925,
    "lng": 129.1152797
  },
  {
    "name": "탑마트 감천점",
    "address": "부산광역시 사하구 감천로 29 (감천동)",
    "tel": "1588-6200",
    "hours": "07:00~24:00",
    "lat": 35.0919013,
    "lng": 128.99614
  },
  {
    "name": "탑마트 구포점",
    "address": "부산광역시 북구 백양대로 1050번가길 9 (구포동)",
    "tel": "1588-6200",
    "hours": "07:00~24:00",
    "lat": 35.1991026,
    "lng": 128.9973338
  },
  {
    "name": "탑마트 금사점",
    "address": "부산광역시 금정구 공단서로 22 (금사동, 탑마트)",
    "tel": "1588-6200",
    "hours": "07:00~24:00",
    "lat": 35.2167355,
    "lng": 129.1106297
  },
  {
    "name": "탑마트 반송점",
    "address": "부산광역시 해운대구 윗반송로 8 (반송동, 반송동탑마트)",
    "tel": "1588-6200",
    "hours": "07:00~24:00",
    "lat": 35.2296881,
    "lng": 129.1505163
  },
  {
    "name": "토곡 한양아파트",
    "address": "부산광역시 연제구 온천천남로 110 (연산동)",
    "tel": "1588-6200",
    "hours": "07:00~24:00",
    "lat": 35.1907591,
    "lng": 129.1006281
  },
  {
    "name": "토곡지점",
    "address": "부산광역시 연제구 과정로 140",
    "tel": "1588-6200",
    "hours": "07:00~24:00",
    "lat": 35.1838322,
    "lng": 129.1073684
  },
  {
    "name": "통도 CC",
    "address": "경남 양산시 하북면 신평남부길 78-130 (하북면 답곡리 1063)",
    "tel": "1588-6200",
    "hours": "05:00~20:00",
    "lat": 35.4857311,
    "lng": 129.1004373
  },
  {
    "name": "파크랜드경비실",
    "address": "부산광역시 금정구 공단로 42-11 (금사동)",
    "tel": "1588-6200",
    "hours": "07:00~24:00",
    "lat": 35.2177088,
    "lng": 129.1136002
  },
  {
    "name": "팔송지점",
    "address": "부산광역시 금정구 중앙대로 2089",
    "tel": "1588-6200",
    "hours": "07:00~24:00",
    "lat": 35.2707604,
    "lng": 129.0924371
  },
  {
    "name": "평택(시간내)",
    "address": "경기 평택시 고덕면 고덕중앙로 200-4 212호~214호 (우성고덕타워)",
    "tel": "1588-6200",
    "hours": "09:30~15:30",
    "lat": 37.0477733,
    "lng": 127.0442098
  },
  {
    "name": "하단 SK뷰",
    "address": "부산광역시 사하구 하신번영로 400 하단 SK뷰 아파트 (후문 경비실 뒷면)",
    "tel": "1588-6200",
    "hours": "07:00~24:00",
    "lat": 35.1181663,
    "lng": 128.9617442
  },
  {
    "name": "하단동금융센터",
    "address": "부산광역시 사하구 하신중앙로 348",
    "tel": "1588-6200",
    "hours": "00:00~24:00",
    "lat": 35.1056168,
    "lng": 128.9681489
  },
  {
    "name": "학장 큰솔병원 입구",
    "address": "부산광역시 사상구 대동로 141 (학장동)",
    "tel": "1588-6200",
    "hours": "07:00~24:00",
    "lat": 35.1409206,
    "lng": 128.9822913
  },
  {
    "name": "학장동(시간내)",
    "address": "부산광역시 사상구 대동로 94 (시간내)",
    "tel": "1588-6200",
    "hours": "09:30~15:30",
    "lat": 35.1379495,
    "lng": 128.9783118
  },
  {
    "name": "학장동지점",
    "address": "부산광역시 사상구 대동로 94",
    "tel": "1588-6200",
    "hours": "07:00~24:00",
    "lat": 35.1379495,
    "lng": 128.9783118
  },
  {
    "name": "해변시장점",
    "address": "부산광역시 수영구 광안해변로15번길 77",
    "tel": "1588-6200",
    "hours": "07:00~24:00",
    "lat": 35.1392331,
    "lng": 129.1090585
  },
  {
    "name": "해운대 힐스테이트위브",
    "address": "부산 해운대구 좌동순환로433번길 30 (중동)",
    "tel": "1588-6200",
    "hours": "07:00~24:00",
    "lat": 35.1615929,
    "lng": 129.1810028
  },
  {
    "name": "해운대구청영업소",
    "address": "부산광역시 해운대구 중동2로 11",
    "tel": "1588-6200",
    "hours": "07:00~24:00",
    "lat": 35.1631769,
    "lng": 129.163634
  },
  {
    "name": "해운대금융센터",
    "address": "부산 해운대구 중동1로 35-1 (중동)",
    "tel": "1588-6200",
    "hours": "07:00~24:00",
    "lat": 35.1624919,
    "lng": 129.1635475
  },
  {
    "name": "해운대비치 CC",
    "address": "부산광역시 기장군 대변리 74",
    "tel": "1588-6200",
    "hours": "05:00~21:00",
    "lat": 35.2248589,
    "lng": 129.2231479
  },
  {
    "name": "해운대우동(시간내)",
    "address": "부산 해운대구 해운대로 407 (시간내)",
    "tel": "1588-6200",
    "hours": "09:30~15:30",
    "lat": 35.1678259,
    "lng": 129.1406828
  },
  {
    "name": "해운대우동지점",
    "address": "부산 해운대구 해운대로 407 (우동)",
    "tel": "1588-6200",
    "hours": "07:00~24:00",
    "lat": 35.1678259,
    "lng": 129.1406828
  },
  {
    "name": "화명 대림타운",
    "address": "부산광역시 북구 금곡대로 270 (화명동, 화명동대림타운)",
    "tel": "1588-6200",
    "hours": "07:00~24:00",
    "lat": 35.2323787,
    "lng": 129.0138866
  },
  {
    "name": "화명 롯데낙천대APT",
    "address": "부산광역시 북구 화명신도시로 156 (화명동)",
    "tel": "1588-6200",
    "hours": "07:00~24:00",
    "lat": 35.2378268,
    "lng": 129.0125412
  },
  {
    "name": "화명 코오롱하늘채",
    "address": "부산광역시 북구 화명신도시로 70 (화명동)",
    "tel": "1588-6200",
    "hours": "07:00~24:00",
    "lat": 35.2304251,
    "lng": 129.011539
  },
  {
    "name": "화명동금융센터",
    "address": "부산광역시 북구 화명신도시로 120",
    "tel": "1588-6200",
    "hours": "00:00~24:00",
    "lat": 35.2345977,
    "lng": 129.0111527
  },
  {
    "name": "화명롯데캐슬카이저",
    "address": "부산광역시 북구 금곡대로 166 복합커뮤니티센터",
    "tel": "1588-6200",
    "hours": "07:00~24:00",
    "lat": 35.2220606,
    "lng": 129.0106433
  },
  {
    "name": "화명수정점",
    "address": "부산 북구 학사로 8 (화명동) 크리스탈타워 상가",
    "tel": "1588-6200",
    "hours": "07:00~24:00",
    "lat": 35.2240706,
    "lng": 129.0087925
  },
  {
    "name": "화전공단",
    "address": "부산광역시 강서구 화전산단6로 71, 부산기계공업조합 1층",
    "tel": "1588-6200",
    "hours": "07:00~24:00",
    "lat": 35.1032731,
    "lng": 128.8824122
  },
  {
    "name": "(주)성광벤드",
    "address": "부산광역시 강서구 녹산산단262로 26 (송정동)",
    "tel": "1588-6200",
    "hours": "07:00~21:00",
    "lat": 35.0859987,
    "lng": 128.8448
  },
  {
    "name": "(주)양산ICD",
    "address": "경상남도 양산시 물금읍 제방로 225",
    "tel": "1588-6200",
    "hours": "07:00~22:00",
    "lat": 35.3090261,
    "lng": 129.0153824
  },
  {
    "name": "F1963",
    "address": "부산 수영구 구락로123번길 20 (망미동) 테라로사",
    "tel": "1588-6200",
    "hours": "07:00~24:00",
    "lat": 35.1762265,
    "lng": 129.1155726
  },
  {
    "name": "GS슈퍼 명장점",
    "address": "부산광역시 동래구 반송로 291 (명장동)",
    "tel": "1588-6200",
    "hours": "08:00~24:00",
    "lat": 35.2063569,
    "lng": 129.1018489
  },
  {
    "name": "HSG성동조선(주) 사무동 1층",
    "address": "경상남도 통영시 광도면 공단로 940 사무동 1층",
    "tel": "1588-6200",
    "hours": "07:00~24:00",
    "lat": 34.9585875,
    "lng": 128.4265935
  },
  {
    "name": "W스퀘어(시간내)",
    "address": "부산시 남구 분포로 145 (시간내)",
    "tel": "1588-6200",
    "hours": "09:00~16:00",
    "lat": 35.1337125,
    "lng": 129.1126448
  },
  {
    "name": "W스퀘어1층",
    "address": "부산시 남구 분포로 145 W스퀘어 지상1층",
    "tel": "1588-6200",
    "hours": "07:00~24:00",
    "lat": 35.1337125,
    "lng": 129.1126448
  },
  {
    "name": "W스퀘어지하1층",
    "address": "부산시 남구 분포로 145 W스퀘어 지하1층",
    "tel": "1588-6200",
    "hours": "07:00~24:00",
    "lat": 35.1337125,
    "lng": 129.1126448
  },
  {
    "name": "[셀프브랜치] 학장점",
    "address": "부산 사상구 학장로 189 학장큰솔2병원 1층로비 (이디야커피)",
    "tel": "1588-6200",
    "hours": "08:00~22:00",
    "lat": 35.1436636,
    "lng": 128.987223
  }
]