[
  {
    "name": "구서동금융센터",
    "address": "부산광역시 금정구 구서로 23",
    "phone": "1588-6200",
    "hours": "00:00 ~ 24:00",
    "lat": 35.24662,
    "lng": 129.0886141
  },
  {
    "name": "금곡주공 1단지내",
    "address": "부산광역시 북구 효열로 268 (금곡동,주공아파트)",
    "phone": "1588-6200",
    "hours": "00:00 ~ 24:00",
    "lat": 35.2684511,
    "lng": 129.0189829
  },
  {
    "name": "남양산지점",
    "address": "경남 양산시 양산역로 71 노바메디칼센터 1층",
    "phone": "1588-6200",
    "hours": "00:00 ~ 24:00",
    "lat": 35.3357242,
    "lng": 129.0287588
  },
  {
    "name": "냉정역영업소",
    "address": "부산광역시 사상구 가야대로 370",
    "phone": "1588-6200",
    "hours": "00:00 ~ 24:00",
    "lat": 35.151021,
    "lng": 129.0128978
  },
  {
    "name": "대연동금융센터",
    "address": "부산 남구 수영로 234 (대연동)",
    "phone": "1588-6200",
    "hours": "00:00 ~ 24:00",
    "lat": 35.1348831,
    "lng": 129.0922131
  },
  {
    "name": "메리놀병원",
    "address": "부산광역시 중구 중구로 121 (대청동4가,메리놀병원1층)",
    "phone": "1588-6200",
    "hours": "00:00 ~ 24:00",
    "lat": 35.1076838,
    "lng": 129.0324148
  },
  {
    "name": "범일동지점",
    "address": "부산 동구 범일로 92 부산은행 범일동 (범일동)",
    "phone": "1588-6200",
    "hours": "00:00 ~ 24:00",
    "lat": 35.1381965,
    "lng": 129.0598444
  },
  {
    "name": "본점 광장",
    "address": "부산 남구 문현금융로 30 (문현동)",
    "phone": "1588-6200",
    "hours": "00:00 ~ 24:00",
    "lat": 35.1456131,
    "lng": 129.0658778
  },
  {
    "name": "사직운동장지점",
    "address": "부산광역시 동래구 사직북로 15",
    "phone": "1588-6200",
    "hours": "00:00 ~ 24:00",
    "lat": 35.197207,
    "lng": 129.0603621
  },
  {
    "name": "신창동 정문",
    "address": "부산광역시 중구 광복중앙로 13",
    "phone": "1588-6200",
    "hours": "00:00 ~ 24:00",
    "lat": 35.1005125,
    "lng": 129.0307891
  },
  {
    "name": "영락공원",
    "address": "부산광역시 금정구 금정도서관로 108 (두구동)",
    "phone": "1588-6200",
    "hours": "00:00 ~ 24:00",
    "lat": 35.2737679,
    "lng": 129.1042206
  },
  {
    "name": "온천동지점",
    "address": "부산 동래구 금강공원로 13-1 (온천동)",
    "phone": "1588-6200",
    "hours": "00:00 ~ 24:00",
    "lat": 35.2184325,
    "lng": 129.0827266
  },
  {
    "name": "장산지점",
    "address": "부산광역시 해운대구 세실로 43",
    "phone": "1588-6200",
    "hours": "00:00 ~ 24:00",
    "lat": 35.1687646,
    "lng": 129.17845
  },
  {
    "name": "장전동지점",
    "address": "부산 금정구 금정로 75 (장전동)",
    "phone": "1588-6200",
    "hours": "00:00 ~ 24:00",
    "lat": 35.2313513,
    "lng": 129.0863558
  },
  {
    "name": "전포카페거리점",
    "address": "부산광역시 부산진구 동천로 55 (2023.05.10 운영형태 전환 / 2층 영업점)",
    "phone": "1588-6200",
    "hours": "00:00 ~ 24:00",
    "lat": 35.1537645,
    "lng": 129.0621252
  },
  {
    "name": "하단동금융센터",
    "address": "부산광역시 사하구 하신중앙로 348",
    "phone": "1588-6200",
    "hours": "00:00 ~ 24:00",
    "lat": 35.1056168,
    "lng": 128.9681489
  },
  {
    "name": "화명동금융센터",
    "address": "부산광역시 북구 화명신도시로 120",
    "phone": "1588-6200",
    "hours": "00:00 ~ 24:00",
    "lat": 35.2345977,
    "lng": 129.0111527
  }
]