[
  {
    "name": "가야동지점",
    "code": "043",
    "tel": "051-892-3651",
    "address": "부산광역시 부산진구 가야대로 610(가야동)",
    "lat": 35.154729,
    "lng": 129.0384948
  },
  {
    "name": "감만동영업소",
    "code": "094",
    "tel": "051-642-5421",
    "address": "부산 남구 우암로 124 홈플러스 감만점 1층",
    "lat": 35.1215448,
    "lng": 129.0822284
  },
  {
    "name": "감전동금융센터",
    "code": "100",
    "tel": "051-312-5301",
    "address": "부산광역시 사상구 새벽로 160(감전동)",
    "lat": 35.155244,
    "lng": 128.9834201
  },
  {
    "name": "감천동지점",
    "code": "084",
    "tel": "051-204-1011",
    "address": "부산광역시 사하구 옥천로 6(감천동)",
    "lat": 35.0880542,
    "lng": 129.0054021
  },
  {
    "name": "감천중앙지점",
    "code": "274",
    "tel": "051-293-8377",
    "address": "부산광역시 사하구 감천로 52(감천동)",
    "lat": 35.0903093,
    "lng": 128.9982207
  },
  {
    "name": "강남금융센터",
    "code": "103",
    "tel": "02-598-6191",
    "address": "서울특별시 서초구 강남대로 279(서초동)",
    "lat": 37.4881091,
    "lng": 127.0317671
  },
  {
    "name": "강서산단지점",
    "code": "374",
    "tel": "051-971-4848",
    "address": "부산 강서구 미음산단로127번길 21(구랑동, BNK금융그룹IT센터)",
    "lat": 35.1376498,
    "lng": 128.8568625
  },
  {
    "name": "개금동지점",
    "code": "060",
    "tel": "051-891-4001",
    "address": "부산광역시 부산진구 가야대로 494(개금동)",
    "lat": 35.1528239,
    "lng": 129.0261687
  },
  {
    "name": "개금사랑영업소",
    "code": "208",
    "tel": "051-891-7007",
    "address": "부산광역시 부산진구 복지로 49(개금동)",
    "lat": 35.1487584,
    "lng": 129.0208679
  },
  {
    "name": "거제고현지점",
    "code": "190",
    "tel": "055-635-9100",
    "address": "경남 거제시 거제중앙로29길 15(고현동)",
    "lat": 34.8895363,
    "lng": 128.6207287
  },
  {
    "name": "거제동지점",
    "code": "035",
    "tel": "051-863-0122",
    "address": "부산광역시 연제구 거제대로 166(거제동)",
    "lat": 35.1831971,
    "lng": 129.0706096
  },
  {
    "name": "검찰청영업소",
    "code": "312",
    "tel": "051-502-1567",
    "address": "부산광역시 연제구 법원로 15(거제동)",
    "lat": 35.1914609,
    "lng": 129.0722737
  },
  {
    "name": "경성대학교영업소",
    "code": "289",
    "tel": "051-625-1628",
    "address": "부산광역시 남구 수영로 309(대연동)",
    "lat": 35.1422456,
    "lng": 129.0969338
  },
  {
    "name": "광남지점",
    "code": "102",
    "tel": "051-625-2201",
    "address": "부산광역시 수영구 광남로 33(남천동)",
    "lat": 35.1458346,
    "lng": 129.1108477
  },
  {
    "name": "광안동지점",
    "code": "039",
    "tel": "051-752-4161",
    "address": "부산 수영구 수영로618번길 4(성우이린타워 2층 [1층자동화코너/2층 영업점])",
    "lat": 35.160547,
    "lng": 129.1140392
  },
  {
    "name": "괘법동영업소",
    "code": "291",
    "tel": "051-313-0223",
    "address": "부산광역시 사상구 운산로 28(괘법동)",
    "lat": 35.1687864,
    "lng": 128.979721
  },
  {
    "name": "괴정동지점",
    "code": "081",
    "tel": "051-206-7571",
    "address": "부산광역시 사하구 낙동대로 225(괴정동)",
    "lat": 35.0995853,
    "lng": 128.9923642
  },
  {
    "name": "교대역영업소",
    "code": "125",
    "tel": "051-506-1661",
    "address": "부산광역시 연제구 중앙대로 1217(거제동)",
    "lat": 35.1959224,
    "lng": 129.0793192
  },
  {
    "name": "구남지점",
    "code": "141",
    "tel": "051-335-9393",
    "address": "부산광역시 북구 백양대로 1025(구포동, 협진태양프라자)",
    "lat": 35.1978558,
    "lng": 128.995157
  },
  {
    "name": "구로디지털지점",
    "code": "347",
    "tel": "02-2082-2540",
    "address": "서울 구로구 디지털로 300 지밸리비즈플라자 6층(구로동)",
    "lat": 37.4850307,
    "lng": 126.8966116
  },
  {
    "name": "구서동금융센터",
    "code": "087",
    "tel": "051-514-2103",
    "address": "부산광역시 금정구 구서로 23(구서동)",
    "lat": 35.24662,
    "lng": 129.0886141
  },
  {
    "name": "구포3동지점",
    "code": "233",
    "tel": "051-332-5201",
    "address": "부산 북구 시랑로79번길 20-5(구포 동성가든타워 상가 1층)",
    "lat": 35.1982949,
    "lng": 129.0071472
  },
  {
    "name": "구포지점",
    "code": "061",
    "tel": "051-332-4201",
    "address": "부산 북구 백양대로 1200(덕천동)",
    "lat": 35.2093711,
    "lng": 129.0058071
  },
  {
    "name": "국제여객터미널영업소",
    "code": "282",
    "tel": "051-462-7706",
    "address": "부산광역시 동구 충장대로 206(초량동, 국제여객터미널 2층)",
    "lat": 35.117747,
    "lng": 129.0491458
  },
  {
    "name": "금곡동영업소",
    "code": "255",
    "tel": "051-362-2151",
    "address": "부산광역시 북구 금곡대로 616번길 55 공동점포(KB국민은행)",
    "lat": 35.2630212,
    "lng": 129.0162521
  },
  {
    "name": "금사공단지점",
    "code": "073",
    "tel": "051-531-8311",
    "address": "부산광역시 금정구 서동로 173(서동)",
    "lat": 35.2147056,
    "lng": 129.1056265
  },
  {
    "name": "금정구청영업소",
    "code": "301",
    "tel": "051-518-4046",
    "address": "부산광역시 금정구 중앙대로 1777(부곡동)",
    "lat": 35.2430679,
    "lng": 129.0921
  },
  {
    "name": "기장지점",
    "code": "126",
    "tel": "051-722-6085",
    "address": "부산 기장군 기장읍 읍내로 98(동부리)",
    "lat": 35.2449518,
    "lng": 129.2150553
  },
  {
    "name": "기찰지점",
    "code": "242",
    "tel": "051-581-0854",
    "address": "부산광역시 금정구 수림로 15(부곡동)",
    "lat": 35.239289,
    "lng": 129.090704
  },
  {
    "name": "김해공항지점",
    "code": "062",
    "tel": "051-971-2643",
    "address": "부산 강서구 공항진입로 108 국제선 1층 4GATE 앞(대저2동, 김해국제공항건물)",
    "lat": 35.1720764,
    "lng": 128.9474778
  },
  {
    "name": "김해금융센터",
    "code": "117",
    "tel": "055-334-1251",
    "address": "경상남도 김해시 가락로 23(부원동 602-9)",
    "lat": 35.2287051,
    "lng": 128.882153
  },
  {
    "name": "김해주촌공단지점",
    "code": "362",
    "tel": "055-324-8660",
    "address": "경상남도 김해시 주촌면 골든루트로66번길 5",
    "lat": 35.212418,
    "lng": 128.8306774
  },
  {
    "name": "남구청영업소",
    "code": "302",
    "tel": "051-644-2505",
    "address": "부산광역시 남구 못골로 19(대연동)",
    "lat": 35.1365769,
    "lng": 129.084163
  },
  {
    "name": "남산동영업소",
    "code": "241",
    "tel": "051-517-0858",
    "address": "부산광역시 금정구 금강로 644(남산동)",
    "lat": 35.2648198,
    "lng": 129.088811
  },
  {
    "name": "남양산지점",
    "code": "164",
    "tel": "055-365-0174",
    "address": "경남 양산시 양산역로 71(중부동, 노바메티칼센터 1층, 2층)",
    "lat": 35.3357242,
    "lng": 129.0287588
  },
  {
    "name": "남천동지점",
    "code": "065",
    "tel": "051-623-8515",
    "address": "부산 수영구 황령대로473번길 15(남천동) 엑슬루타워",
    "lat": 35.1401475,
    "lng": 129.1063592
  },
  {
    "name": "내성영업소",
    "code": "078",
    "tel": "051-504-9985",
    "address": "부산 동래구 충렬대로 118(온천동)",
    "lat": 35.2061117,
    "lng": 129.0733562
  },
  {
    "name": "내외동지점",
    "code": "259",
    "tel": "055-324-2610",
    "address": "경남 김해시 내외중앙로 60 신한프라자 101호",
    "lat": 35.2351557,
    "lng": 128.8671181
  },
  {
    "name": "냉정역영업소",
    "code": "138",
    "tel": "051-324-6851",
    "address": "부산광역시 사상구 가야대로 370(주례동)",
    "lat": 35.151021,
    "lng": 129.0128978
  },
  {
    "name": "녹산공단금융센터",
    "code": "143",
    "tel": "051-831-0201",
    "address": "부산광역시 강서구 녹산산단232로 38-26(송정동)",
    "lat": 35.0866569,
    "lng": 128.840238
  },
  {
    "name": "녹산중앙지점",
    "code": "167",
    "tel": "051-831-8811",
    "address": "부산광역시 강서구 녹산산단335로 16(송정동)",
    "lat": 35.0904969,
    "lng": 128.8543199
  },
  {
    "name": "다대2동영업소",
    "code": "137",
    "tel": "051-266-4893",
    "address": "부산광역시 사하구 다대로 429번길 15(다대동)",
    "lat": 35.0637388,
    "lng": 128.9807244
  },
  {
    "name": "다대포지점",
    "code": "109",
    "tel": "051-263-8267",
    "address": "부산광역시 사하구 다대로 544, 진요빌딩 104호(다대동)",
    "lat": 35.0578274,
    "lng": 128.9709781
  },
  {
    "name": "당감동지점",
    "code": "054",
    "tel": "051-895-9711",
    "address": "부산광역시 부산진구 당감로 48(당감동)",
    "lat": 35.1658619,
    "lng": 129.0392872
  },
  {
    "name": "당리동지점",
    "code": "086",
    "tel": "051-205-6511",
    "address": "부산광역시 사하구 낙동대로 401-1(당리동)",
    "lat": 35.1031559,
    "lng": 128.9740542
  },
  {
    "name": "당평지점",
    "code": "105",
    "tel": "051-895-8432",
    "address": "부산광역시 부산진구 백양관문로 7(개금동)",
    "lat": 35.1602793,
    "lng": 129.0298645
  },
  {
    "name": "대구금융센터",
    "code": "350",
    "tel": "053-656-9304",
    "address": "대구광역시 달서구 달구벌대로 1686, 송림타워(두류동)",
    "lat": 35.8548082,
    "lng": 128.5504746
  },
  {
    "name": "대신동지점",
    "code": "029",
    "tel": "051-248-6501",
    "address": "부산광역시 서구 구덕로 325(서대신동3가)",
    "lat": 35.1128008,
    "lng": 129.0161077
  },
  {
    "name": "대연3동영업소",
    "code": "398",
    "tel": "051-626-8177",
    "address": "부산 남구 황령대로319번가길 158-4",
    "lat": 35.1520161,
    "lng": 129.0886245
  },
  {
    "name": "대연동금융센터",
    "code": "036",
    "tel": "051-627-3117",
    "address": "부산광역시 남구 수영로 234(대연동)",
    "lat": 35.1348831,
    "lng": 129.0922131
  },
  {
    "name": "대저동지점",
    "code": "080",
    "tel": "051-972-0411",
    "address": "부산광역시 강서구 낙동북로 477(대저1동)",
    "lat": 35.2122178,
    "lng": 128.98045
  },
  {
    "name": "대전금융센터",
    "code": "379",
    "tel": "042-486-9334",
    "address": "대전 서구 둔산로 64(둔산동, 굿모닝빌딩 101호)",
    "lat": 36.3510834,
    "lng": 127.3809338
  },
  {
    "name": "덕계지점",
    "code": "128",
    "tel": "055-367-0093",
    "address": "경상남도 양산시 덕계로 91(덕계동)",
    "lat": 35.3757993,
    "lng": 129.1524478
  },
  {
    "name": "덕포동지점",
    "code": "076",
    "tel": "051-305-0310",
    "address": "부산광역시 사상구 사상로 305(덕포동)",
    "lat": 35.172082,
    "lng": 128.9829728
  },
  {
    "name": "동구청영업소",
    "code": "297",
    "tel": "051-464-3093",
    "address": "부산광역시 동구 구청로 1(수정동)",
    "lat": 35.1292745,
    "lng": 129.0453253
  },
  {
    "name": "동김해지점",
    "code": "364",
    "tel": "055-322-9896",
    "address": "경상남도 김해시 인제로 57(향원당 빌딩 2층)",
    "lat": 35.2337984,
    "lng": 128.9045764
  },
  {
    "name": "동대신동영업소",
    "code": "063",
    "tel": "051-244-4440",
    "address": "부산광역시 서구 대영로 87(동대신동2가)",
    "lat": 35.1112663,
    "lng": 129.020661
  },
  {
    "name": "동래금융센터",
    "code": "033",
    "tel": "051-558-4937",
    "address": "부산광역시 동래구 명륜로 94번길 54(수안동)",
    "lat": 35.2045134,
    "lng": 129.0842752
  },
  {
    "name": "동명대학교영업소",
    "code": "390",
    "tel": "051-626-7960",
    "address": "부산 남구 신선로 428 산학협력관(용당동, 동명대학교)",
    "lat": 35.1220654,
    "lng": 129.1016625
  },
  {
    "name": "동아대학교영업소",
    "code": "201",
    "tel": "051-203-5610",
    "address": "부산광역시 사하구 낙동대로 550번길 37(하단동)",
    "lat": 35.1161348,
    "lng": 128.9675078
  },
  {
    "name": "동의과학대학교 영업소",
    "code": "377",
    "tel": "051-852-8661",
    "address": "부산 부산진구 양지로 54 진리관 내(양정동, 동의과학대학)",
    "lat": 35.1660105,
    "lng": 129.0725355
  },
  {
    "name": "두실지점",
    "code": "112",
    "tel": "051-515-6920",
    "address": "부산광역시 금정구 중앙대로 1939(구서동)",
    "lat": 35.257473,
    "lng": 129.0909982
  },
  {
    "name": "대저동지점",
    "code": "080",
    "tel": "051-972-0411",
    "address": "부산광역시 강서구 낙동북로 477(대저1동)",
    "lat": 35.2122178,
    "lng": 128.98045
  },
  {
    "name": "대전금융센터",
    "code": "379",
    "tel": "042-486-9334",
    "address": "대전 서구 둔산로 64 (둔산동, 굿모닝빌딩 101호)",
    "lat": 36.3510834,
    "lng": 127.3809338
  },
  {
    "name": "덕계지점",
    "code": "128",
    "tel": "055-367-0093",
    "address": "경상남도 양산시 덕계로 91(덕계동)",
    "lat": 35.3757993,
    "lng": 129.1524478
  },
  {
    "name": "덕포동지점",
    "code": "076",
    "tel": "051-305-0310",
    "address": "부산광역시 사상구 사상로 305(덕포동)",
    "lat": 35.172082,
    "lng": 128.9829728
  },
  {
    "name": "동구청영업소",
    "code": "297",
    "tel": "051-464-3093",
    "address": "부산광역시 동구 구청로 1(수정동)",
    "lat": 35.1292745,
    "lng": 129.0453253
  },
  {
    "name": "동김해지점",
    "code": "364",
    "tel": "055-322-9896",
    "address": "경상남도 김해시 인제로 57, 향원당빌딩 2층",
    "lat": 35.2337984,
    "lng": 128.9045764
  },
  {
    "name": "동대신동영업소",
    "code": "063",
    "tel": "051-244-4440",
    "address": "부산광역시 서구 대영로 87(동대신동2가)",
    "lat": 35.1112663,
    "lng": 129.020661
  },
  {
    "name": "동래금융센터",
    "code": "033",
    "tel": "051-558-4937",
    "address": "부산광역시 동래구 명륜로 94번길 54(수안동)",
    "lat": 35.2045134,
    "lng": 129.0842752
  },
  {
    "name": "동명대학교영업소",
    "code": "390",
    "tel": "051-626-7960",
    "address": "부산 남구 신선로 428 산학협력관(용당동, 동명대학교)",
    "lat": 35.1220654,
    "lng": 129.1016625
  },
  {
    "name": "동아대학교영업소",
    "code": "201",
    "tel": "051-203-5610",
    "address": "부산광역시 사하구 낙동대로 550번길 37(하단동)",
    "lat": 35.1161348,
    "lng": 128.9675078
  },
  {
    "name": "동의과학대학교영업소",
    "code": "377",
    "tel": "051-852-8661",
    "address": "부산 부산진구 양지로 54 진리관 내(양정동, 동의과학대학)",
    "lat": 35.1660105,
    "lng": 129.0725355
  },
  {
    "name": "두실지점",
    "code": "112",
    "tel": "051-515-6920",
    "address": "부산광역시 금정구 중앙대로 1939(구서동)",
    "lat": 35.257473,
    "lng": 129.0909982
  },
  {
    "name": "마린제니스지점",
    "code": "351",
    "tel": "051-742-3773",
    "address": "부산광역시 해운대구 마린시티2로 33(우동)",
    "lat": 35.156667,
    "lng": 129.1450909
  },
  {
    "name": "마산지점",
    "code": "071",
    "tel": "055-255-0161",
    "address": "경상남도 창원시 마산회원구 봉양로 190(봉암동)",
    "lat": 35.2168562,
    "lng": 128.6066147
  },
  {
    "name": "만덕동지점",
    "code": "106",
    "tel": "051-336-8461",
    "address": "부산광역시 북구 덕천로 299(만덕동)",
    "lat": 35.2097496,
    "lng": 129.0365451
  },
  {
    "name": "망미동지점",
    "code": "075",
    "tel": "051-754-3000",
    "address": "부산광역시 수영구 과정로 43(망미동)",
    "lat": 35.1751671,
    "lng": 129.1072682
  },
  {
    "name": "메트로자이영업소",
    "code": "393",
    "tel": "051-626-8401",
    "address": "부산 남구 신선로 566 GS하이츠자이 상가(용호동)",
    "lat": 35.1327753,
    "lng": 129.1103946
  },
  {
    "name": "명륜동지점",
    "code": "244",
    "tel": "051-556-8362",
    "address": "부산광역시 동래구 명륜로 192(명륜동)",
    "lat": 35.2108835,
    "lng": 129.0828863
  },
  {
    "name": "명장동지점",
    "code": "219",
    "tel": "051-529-3217",
    "address": "부산광역시 동래구 반송로 325(명장동)",
    "lat": 35.2085278,
    "lng": 129.103197
  },
  {
    "name": "명지국제신도시지점",
    "code": "384",
    "tel": "051-271-8091",
    "address": "부산 강서구 명지국제8로 251(명지동, 명지국제타워)",
    "lat": 35.0983522,
    "lng": 128.9204949
  },
  {
    "name": "명지지점",
    "code": "295",
    "tel": "051-271-3102",
    "address": "부산광역시 강서구 명지오션시티11로 66(명지동)",
    "lat": 35.0840394,
    "lng": 128.9031455
  },
  {
    "name": "모라동지점",
    "code": "051",
    "tel": "051-304-0082",
    "address": "부산광역시 사상구 사상로 448(모라동)",
    "lat": 35.1843975,
    "lng": 128.986907
  },
  {
    "name": "몰운대영업소",
    "code": "266",
    "tel": "051-263-8633",
    "address": "부산광역시 사하구 다대로 702(다대동)",
    "lat": 35.0490237,
    "lng": 128.9651331
  },
  {
    "name": "무거동지점",
    "code": "192",
    "tel": "052-225-2436",
    "address": "울산광역시 남구 무거동 461 웰츠타워 114호,115호",
    "lat": 35.5486146,
    "lng": 129.2632904
  },
  {
    "name": "문현동지점",
    "code": "207",
    "tel": "051-645-9651",
    "address": "부산광역시 남구 수영로 27(문현동)",
    "lat": 35.137228,
    "lng": 129.0708708
  },
  {
    "name": "물금신도시지점",
    "code": "380",
    "tel": "055-365-8303",
    "address": "경상남도 양산시 물금읍 야리로 45, 이플라자빌딩 101호,201호",
    "lat": 35.3158915,
    "lng": 129.0031179
  },
  {
    "name": "미남지점",
    "code": "104",
    "tel": "051-556-4601",
    "address": "부산 동래구 충렬대로107번길 65, 동래래미안아이파크 상가",
    "lat": 35.2108106,
    "lng": 129.071354
  },
  {
    "name": "민락동지점",
    "code": "185",
    "tel": "051-751-4961",
    "address": "부산 수영구 광안해변로 293",
    "lat": 35.1565517,
    "lng": 129.1254663
  },
  {
    "name": "반송동지점",
    "code": "057",
    "tel": "051-542-1131",
    "address": "부산광역시 해운대구 아랫반송로 21번길 34(반송동)",
    "lat": 35.2261849,
    "lng": 129.1487041
  },
  {
    "name": "반송운봉영업소",
    "code": "228",
    "tel": "051-543-2170",
    "address": "부산광역시 해운대구 신반송로 208(반송동)",
    "lat": 35.2307114,
    "lng": 129.1575904
  },
  {
    "name": "반여2동영업소",
    "code": "237",
    "tel": "051-784-0035",
    "address": "부산광역시 해운대구 재반로 213(반여동)",
    "lat": 35.1962368,
    "lng": 129.1306583
  },
  {
    "name": "반여동지점",
    "code": "056",
    "tel": "051-526-7071",
    "address": "부산광역시 해운대구 선수촌로 21번길 7(반여동)",
    "lat": 35.1959789,
    "lng": 129.1180957
  },
  {
    "name": "범내골지점",
    "code": "031",
    "tel": "051-646-8356",
    "address": "부산광역시 부산진구 중앙대로 618(범천동)",
    "lat": 35.1478721,
    "lng": 129.0595951
  },
  {
    "name": "범일동지점",
    "code": "022",
    "tel": "051-632-8501",
    "address": "부산 동구 범일로 92(범일동)",
    "lat": 35.1381965,
    "lng": 129.0598444
  },
  {
    "name": "범천동영업소",
    "code": "034",
    "tel": "051-634-3951",
    "address": "부산광역시 동구 중앙대로 538(범일동)",
    "lat": 35.1412492,
    "lng": 129.0569323
  },
  {
    "name": "법원영업소",
    "code": "285",
    "tel": "051-503-2750",
    "address": "부산광역시 연제구 법원로 31(거제동)",
    "lat": 35.1921968,
    "lng": 129.0729632
  },
  {
    "name": "법조타운지점",
    "code": "154",
    "tel": "051-504-1826",
    "address": "부산광역시 연제구 법원로 28(거제동)",
    "lat": 35.1913896,
    "lng": 129.0742654
  },
  {
    "name": "벡스코영업소",
    "code": "194",
    "tel": "051-744-4161",
    "address": "부산광역시 해운대구 APEC로 55",
    "lat": 35.1690975,
    "lng": 129.1363115
  },
  {
    "name": "본점영업부",
    "code": "020",
    "tel": "051-661-4000",
    "address": "부산 남구 문현금융로 30, 1층(문현동, 부산은행본점)",
    "lat": 35.1456131,
    "lng": 129.0658778
  },
  {
    "name": "봉래동영업소",
    "code": "247",
    "tel": "051-414-9508",
    "address": "부산광역시 영도구 태종로 139(봉래동3가)",
    "lat": 35.0924145,
    "lng": 129.0442202
  },
  {
    "name": "부곡동지점",
    "code": "064",
    "tel": "051-515-2281",
    "address": "부산광역시 금정구 부곡로 117(부곡동)",
    "lat": 35.2263858,
    "lng": 129.0916227
  },
  {
    "name": "부산국제금융센터지점",
    "code": "372",
    "tel": "051-647-9613",
    "address": "부산 남구 문현금융로 40 부산국제금융센터 901호(문현동)",
    "lat": 35.1472601,
    "lng": 129.0656311
  },
  {
    "name": "부산서부지원영업소",
    "code": "389",
    "tel": "051-1588-6200",
    "address": "부산 강서구 명지국제7로 77 부산서부지원청사 내(명지동)",
    "lat": 35.0973107,
    "lng": 128.9098686
  },
  {
    "name": "부산서부지청영업소",
    "code": "395",
    "tel": "051-201-0391",
    "address": "부산광역시 강서구 명지국제7로 67 종합민원실 내",
    "lat": 35.0974839,
    "lng": 128.9085617
  },
  {
    "name": "부산시교육청지점",
    "code": "204",
    "tel": "051-862-9905",
    "address": "부산광역시 부산진구 화지로 12(양정동)",
    "lat": 35.1762599,
    "lng": 129.0646
  },
  {
    "name": "부산시청지점",
    "code": "140",
    "tel": "051-852-0066",
    "address": "부산광역시 연제구 중앙대로 1001(연산동)",
    "lat": 35.1798159,
    "lng": 129.0750223
  },
  {
    "name": "부산외국어대학교영업소",
    "code": "373",
    "tel": "051-512-0301",
    "address": "부산 금정구 금샘로485번길 65(남산동, 부산외국어대학교)",
    "lat": 35.2670499,
    "lng": 129.07905
  },
  {
    "name": "부산진구청영업소",
    "code": "303",
    "tel": "051-816-3830",
    "address": "부산광역시 부산진구 시민공원로 30(부암동)",
    "lat": 35.1629129,
    "lng": 129.053157
  },
  {
    "name": "부전동금융센터",
    "code": "021",
    "tel": "051-803-0851",
    "address": "부산광역시 부산진구 새싹로 1(부전동)",
    "lat": 35.158268,
    "lng": 129.0584255
  },
  {
    "name": "부전시장영업소",
    "code": "206",
    "tel": "051-803-5404",
    "address": "부산광역시 부산진구 부전로 166(부전동)",
    "lat": 35.1626487,
    "lng": 129.0591337
  },
  {
    "name": "연산동금융센터",
    "code": "048",
    "tel": "051-865-1601",
    "address": "부산 연제구 중앙대로 1073(연산동)",
    "lat": 35.1840554,
    "lng": 129.0796434
  },
  {
    "name": "연서지점",
    "code": "182",
    "tel": "051-863-4536",
    "address": "부산광역시 연제구 세병로 39(연산동)",
    "lat": 35.1920266,
    "lng": 129.0834727
  },
  {
    "name": "연안영업소",
    "code": "273",
    "tel": "051-521-3122",
    "address": "부산광역시 동래구 안연로 74(안락동)",
    "lat": 35.1938974,
    "lng": 129.0988464
  },
  {
    "name": "연제구청영업소",
    "code": "307",
    "tel": "051-865-3607",
    "address": "부산광역시 연제구 연제로 2(연산동)",
    "lat": 35.1762419,
    "lng": 129.079764
  },
  {
    "name": "연지동지점",
    "code": "050",
    "tel": "051-809-1351",
    "address": "부산광역시 부산진구 새싹로 144(연지동)",
    "lat": 35.1691618,
    "lng": 129.0505397
  },
  {
    "name": "연천지점",
    "code": "088",
    "tel": "051-861-3344",
    "address": "부산광역시 연제구 과정로 276(연산동)",
    "lat": 35.1881942,
    "lng": 129.0972667
  },
  {
    "name": "영도구청영업소",
    "code": "300",
    "tel": "051-418-4571",
    "address": "부산광역시 영도구 태종로 423(청학동)",
    "lat": 35.0911989,
    "lng": 129.067875
  },
  {
    "name": "영도금융센터",
    "code": "026",
    "tel": "051-416-2421",
    "address": "부산광역시 영도구 절영로 27(대교동2가)",
    "lat": 35.0918278,
    "lng": 129.039739
  },
  {
    "name": "영도동삼동지점",
    "code": "355",
    "tel": "051-415-0063",
    "address": "부산광역시 영도구 동삼로 56, 한나타워 3층(동삼동)",
    "lat": 35.0783879,
    "lng": 129.0709519
  },
  {
    "name": "영선동영업소",
    "code": "053",
    "tel": "051-414-7231",
    "address": "부산광역시 영도구 영선대로 75(영선동2가)",
    "lat": 35.0877774,
    "lng": 129.0417146
  },
  {
    "name": "영주동영업소",
    "code": "392",
    "tel": "051-463-8011",
    "address": "부산 중구 대영로 224(영주동)",
    "lat": 35.1118304,
    "lng": 129.0352687
  },
  {
    "name": "온천동지점",
    "code": "025",
    "tel": "051-555-1461",
    "address": "부산광역시 동래구 금강공원로 13-1(온천동)",
    "lat": 35.2184325,
    "lng": 129.0827266
  },
  {
    "name": "용당지점",
    "code": "217",
    "tel": "051-626-7761",
    "address": "부산광역시 남구 유엔평화로 165(용당동)",
    "lat": 35.1219897,
    "lng": 129.0985379
  },
  {
    "name": "용원지점",
    "code": "176",
    "tel": "055-552-6425",
    "address": "경상남도 창원시 진해구 안골로 338, 드림빌딩 1층(용원동)",
    "lat": 35.101288,
    "lng": 128.8099382
  },
  {
    "name": "용호동지점",
    "code": "083",
    "tel": "051-623-1691",
    "address": "부산광역시 남구 용호로 141(용호동)",
    "lat": 35.1193884,
    "lng": 129.1122342
  },
  {
    "name": "울산금융센터",
    "code": "111",
    "tel": "052-267-5301",
    "address": "울산 남구 두왕로154번길 13(선암동)",
    "lat": 35.5156038,
    "lng": 129.3106905
  },
  {
    "name": "울산중앙지점",
    "code": "133",
    "tel": "052-243-2100",
    "address": "울산 중구 번영로 329(옥교동)",
    "lat": 35.5549871,
    "lng": 129.3238328
  },
  {
    "name": "울산호계지점",
    "code": "172",
    "tel": "052-285-2121",
    "address": "울산광역시 북구 호계로 328(신천동)",
    "lat": 35.632499,
    "lng": 129.3505784
  },
  {
    "name": "이기대영업소",
    "code": "275",
    "tel": "051-626-8845",
    "address": "부산 남구 용호로 190-1(용호동)",
    "lat": 35.1152805,
    "lng": 129.1107217
  },
  {
    "name": "인천지점",
    "code": "361",
    "tel": "032-822-8966",
    "address": "인천광역시 남동구 은청로 9(고잔동)",
    "lat": 37.4077802,
    "lng": 126.6939333
  },
  {
    "name": "일광지점",
    "code": "396",
    "tel": "051-721-0121",
    "address": "부산 기장군 일광면 해빛로 17(네오 더 퍼스트 상가 202호,203호)",
    "lat": 35.2663011,
    "lng": 129.2260207
  },
  {
    "name": "장림동지점",
    "code": "077",
    "tel": "051-263-5101",
    "address": "부산광역시 사하구 장림번영로 35(장림동)",
    "lat": 35.0808515,
    "lng": 128.969187
  },
  {
    "name": "장산지점",
    "code": "278",
    "tel": "051-702-1824",
    "address": "부산광역시 해운대구 세실로 43(좌동)",
    "lat": 35.1687646,
    "lng": 129.17845
  },
  {
    "name": "장유지점",
    "code": "160",
    "tel": "055-313-9802",
    "address": "경상남도 김해시 장유면 계동로 233",
    "lat": null,
    "lng": null
  },
  {
    "name": "장전동지점",
    "code": "059",
    "tel": "051-512-1011",
    "address": "부산광역시 금정구 금정로 75(장전동)",
    "lat": 35.2313513,
    "lng": 129.0863558
  },
  {
    "name": "재송동지점",
    "code": "225",
    "tel": "051-782-1161",
    "address": "부산 해운대구 재반로 107 (재송동)2층",
    "lat": 35.1880917,
    "lng": 129.126034
  },
  {
    "name": "전포역지점",
    "code": "066",
    "tel": "051-802-1236",
    "address": "부산광역시 부산진구 전포대로 200(전포동)",
    "lat": 35.1543329,
    "lng": 129.0657796
  },
  {
    "name": "전포카페거리영업소",
    "code": "096",
    "tel": "051-805-7333",
    "address": "부산광역시 부산진구 동천로 55(부전동)",
    "lat": 35.1537645,
    "lng": 129.0621252
  },
  {
    "name": "정관모전영업소",
    "code": "368",
    "tel": "051-728-7678",
    "address": "부산광역시 기장군 정관읍 정관로 395(모전리)",
    "lat": 35.3341599,
    "lng": 129.1660003
  },
  {
    "name": "정관지점",
    "code": "175",
    "tel": "051-727-3270",
    "address": "부산광역시 기장군 정관읍 정관7로 3(매학리,광장아울렛 101호)",
    "lat": 35.3224173,
    "lng": 129.175956
  },
  {
    "name": "좌동지점",
    "code": "267",
    "tel": "051-701-0053",
    "address": "부산광역시 해운대구 대천로 103번길 29(좌동)",
    "lat": 35.1767671,
    "lng": 129.1730542
  },
  {
    "name": "중구청영업소",
    "code": "308",
    "tel": "051-465-3520",
    "address": "부산광역시 중구 중구로 120(대청동1가)",
    "lat": 35.1062139,
    "lng": 129.032352
  },
  {
    "name": "중부지점",
    "code": "023",
    "tel": "051-248-3961",
    "address": "부산 중구 중앙대로 21 1층(중앙동6가,부산데파트)",
    "lat": 35.0995032,
    "lng": 129.0361357
  },
  {
    "name": "중앙동금융센터",
    "code": "015",
    "tel": "051-469-0181",
    "address": "부산광역시 중구 중앙대로 96(중앙동4가 89-2)",
    "lat": 35.1062696,
    "lng": 129.0365814
  },
  {
    "name": "진영지점",
    "code": "179",
    "tel": "055-343-7125",
    "address": "경남 김해시 진영읍 서부로 15, (워커힐 B/D 1층)",
    "lat": 35.2944594,
    "lng": 128.7636216
  },
  {
    "name": "창원지점",
    "code": "118",
    "tel": "055-263-7661",
    "address": "경상남도 창원시 성산구 중앙대로 89(중앙동) 라큐비오피스텔 2층 205호",
    "lat": 35.2231375,
    "lng": 128.6785131
  },
  {
    "name": "청학동지점",
    "code": "046",
    "tel": "051-416-2425",
    "address": "부산광역시 영도구 태종로 321(청학동)",
    "lat": 35.0968011,
    "lng": 129.0611707
  },
  {
    "name": "초량동지점",
    "code": "030",
    "tel": "051-468-3391",
    "address": "부산광역시 동구 중앙대로 251번길 29(초량동)",
    "lat": 35.1197353,
    "lng": 129.040186
  },
  {
    "name": "초읍동영업소",
    "code": "188",
    "tel": "051-816-5441",
    "address": "부산광역시 부산진구 성지로 52(연지동)",
    "lat": 35.1752355,
    "lng": 129.0549429
  },
  {
    "name": "충무동지점",
    "code": "024",
    "tel": "051-242-3571",
    "address": "부산광역시 서구 충무대로 280(충무동1가)",
    "lat": 35.0955819,
    "lng": 129.024613
  },
  {
    "name": "토곡지점",
    "code": "256",
    "tel": "051-758-2562",
    "address": "부산광역시 연제구 과정로 140(연산동)",
    "lat": 35.1838322,
    "lng": 129.1073684
  },
  {
    "name": "팔송지점",
    "code": "099",
    "tel": "051-516-8552",
    "address": "부산광역시 금정구 중앙대로 2089(남산동)",
    "lat": 35.2707604,
    "lng": 129.0924371
  },
  {
    "name": "평택지점",
    "code": "397",
    "tel": "031-668-7231",
    "address": "경기 평택시 고덕면 고덕중앙로 200-4 우성고덕타워 212호~214호",
    "lat": 37.0477733,
    "lng": 127.0442098
  },
  {
    "name": "하단동금융센터",
    "code": "101",
    "tel": "051-205-3261",
    "address": "부산광역시 사하구 하신중앙로 348(하단동)",
    "lat": 35.1056168,
    "lng": 128.9681489
  },
  {
    "name": "학장동지점",
    "code": "251",
    "tel": "051-328-3051",
    "address": "부산광역시 사상구 대동로 98(학장동)",
    "lat": 35.1374118,
    "lng": 128.9793927
  },
  {
    "name": "해운대구청영업소",
    "code": "309",
    "tel": "051-746-3931",
    "address": "부산광역시 해운대구 중동2로 11(중동)",
    "lat": 35.1631769,
    "lng": 129.163634
  },
  {
    "name": "해운대금융센터",
    "code": "032",
    "tel": "051-746-1351",
    "address": "부산광역시 해운대구 중동1로 35-1(중동)",
    "lat": 35.1624919,
    "lng": 129.1635475
  },
  {
    "name": "해운대우동지점",
    "code": "196",
    "tel": "051-744-5490",
    "address": "부산 해운대구 해운대로 407(우동)",
    "lat": 35.1678259,
    "lng": 129.1406828
  },
  {
    "name": "화명동금융센터",
    "code": "108",
    "tel": "051-361-2378",
    "address": "부산광역시 북구 화명신도시로 120(화명동)",
    "lat": 35.2345977,
    "lng": 129.0111527
  },
  {
    "name": "화명수정지점",
    "code": "169",
    "tel": "051-342-5841",
    "address": "부산 북구 학사로 8(화명동) 크리스탈타워 상가",
    "lat": 35.2240706,
    "lng": 129.0087925
  },
  {
    "name": "화전공단지점",
    "code": "195",
    "tel": "051-971-8899",
    "address": "부산광역시 강서구 화전산단6로 71, 부산기계공업조합 1층(화전동)",
    "lat": 35.1032731,
    "lng": 128.8824122
  },
  {
    "name": "W스퀘어지점",
    "code": "310",
    "tel": "051-612-8291",
    "address": "부산 남구 분포로 145,(W스퀘어 2088호 / 용호동)",
    "lat": 35.1337125,
    "lng": 129.1126448
  }
]