[
  {
    "name": "감전동지점(점내)",
    "address": "부산 사상구 새벽로 160",
    "hours": "09:00~16:00",
    "lat": 35.155244,
    "lng": 128.9834201
  },
  {
    "name": "괴정동지점(점내)",
    "address": "부산 사하구 낙동대로 225",
    "hours": "09:00~16:00",
    "lat": 35.0995853,
    "lng": 128.9923642
  },
  {
    "name": "구서동금융센터(점내)",
    "address": "부산 금정구 구서로 23",
    "hours": "09:00~16:00",
    "lat": 35.24662,
    "lng": 129.0886141
  },
  {
    "name": "국내선 1층",
    "address": "부산광역시 강서구 공항진입로 108",
    "hours": "05:00~23:00",
    "lat": 35.1720764,
    "lng": 128.9474778
  },
  {
    "name": "김해금융센터(점내)",
    "address": "경남 김해시 가락로 23",
    "hours": "09:00~16:00",
    "lat": 35.2287051,
    "lng": 128.882153
  },
  {
    "name": "남양산지점(점내)",
    "address": "경남 양산시 양산역로 71",
    "hours": "09:00~16:00",
    "lat": 35.3357242,
    "lng": 129.0287588
  },
  {
    "name": "대연혁신점(Sel.B)",
    "address": "부산 남구 수영로 345",
    "hours": "07:00~24:00",
    "lat": 35.1422158,
    "lng": 129.1010779
  },
  {
    "name": "디지털플레이스 센텀시티역점",
    "address": "부산 해운대구 우동 1524",
    "hours": "07:00~24:00",
    "lat": 35.1702207,
    "lng": 129.1341338
  },
  {
    "name": "무거동지점(점내)",
    "address": "울산광역시 남구 무거동 461 웰츠타워 114호,115호",
    "hours": "09:00~16:00",
    "lat": 35.5486146,
    "lng": 129.2632904
  },
  {
    "name": "범일동지점(점내)",
    "address": "부산 동구 범일로 92",
    "hours": "09:00~16:00",
    "lat": 35.1381965,
    "lng": 129.0598444
  },
  {
    "name": "부전역지점(점내)",
    "address": "부산광역시 부산진구 중앙대로 807",
    "hours": "09:00~16:00",
    "lat": 35.1638758,
    "lng": 129.0634487
  },
  {
    "name": "사상금융센터(점내)",
    "address": "부산 사상구 사상로 5",
    "hours": "09:00~16:00",
    "lat": 35.1504814,
    "lng": 128.9987749
  },
  {
    "name": "서면롯데1번가 지점(점내)",
    "address": "부산 진구 중앙대로 691번길 32",
    "hours": "10:00~17:00",
    "lat": 35.1546829,
    "lng": 129.0572573
  },
  {
    "name": "센텀금융센터(점내)",
    "address": "부산 해운대구 센텀중앙로 78",
    "hours": "09:00~16:00",
    "lat": 35.1746308,
    "lng": 129.1269785
  },
  {
    "name": "신평동금융센터(점내)",
    "address": "부산 사하구 장평로 278",
    "hours": "09:00~16:00",
    "lat": 35.0909992,
    "lng": 128.9734198
  },
  {
    "name": "연산동금융센터(점내)",
    "address": "부산 연제구 중앙대로 1073",
    "hours": "09:00~16:00",
    "lat": 35.1840554,
    "lng": 129.0796434
  },
  {
    "name": "영업부",
    "address": "부산 남구 문현금융로 30",
    "hours": "07:00~24:00",
    "lat": 35.1456131,
    "lng": 129.0658778
  },
  {
    "name": "일광지점(점내)",
    "address": "부산 기장군 일광면 해빛로 17",
    "hours": "09:00~16:00",
    "lat": 35.2663011,
    "lng": 129.2260207
  },
  {
    "name": "중앙동금융센터",
    "address": "부산광역시 중구 중앙대로 96",
    "hours": "07:00~24:00",
    "lat": 35.1062696,
    "lng": 129.0365814
  },
  {
    "name": "중앙동금융센터(점내)",
    "address": "부산광역시 중구 중앙대로 96",
    "hours": "09:00~16:00",
    "lat": 35.1062696,
    "lng": 129.0365814
  },
  {
    "name": "큰솔병원 학장점(Sel.B)",
    "address": "부산 사상구 학장로 189",
    "hours": "08:00~20:00",
    "lat": 35.1436636,
    "lng": 128.987223
  },
  {
    "name": "학장동지점(점내)",
    "address": "부산광역시 사상구 대동로 94",
    "hours": "09:00~16:00",
    "lat": 35.1379495,
    "lng": 128.9783118
  },
  {
    "name": "해운대우동 지점(점내)",
    "address": "부산 해운대구 해운대로 407",
    "hours": "09:00~16:00",
    "lat": 35.1678259,
    "lng": 129.1406828
  },
  {
    "name": "F1963",
    "address": "부산 수영구 구락로 123번길 20",
    "hours": "07:00~24:00",
    "lat": 35.1762265,
    "lng": 129.1155726
  },
  {
    "name": "W스퀘어 (점내)",
    "address": "부산광역시 남구 분포로 145",
    "hours": "09:00~16:00",
    "lat": 35.1337125,
    "lng": 129.1126448
  }
]